~V
VERS. 2.0 : CWLS LOG ASCII STANDARD -VERSION 2.0
WRAP. NO : ONE LINE PER DEPTH STEP
~W
STRT.FT 0.0000 :START DEPTH                       
STOP.FT 1400.0000 :STOP DEPTH                     
STEP.FT 5.0000 :STEP                              
NULL. -999.25 :NULL VALUE
FLD.  :FIELD
PROV.  :PROVINCE
COMP.  :COMPANY
DATE.  :DATE
LOC.  :LOCATION
SRVC.  :SERVICE COMPANY
UWI.  :UNIQUE WELL ID
WELL. Well1 :WELL
~C
DEPTH.FT  :DEPTH
USDP-83ft-2kHz.deg :                              
USDP-83ft-6kHz.deg :                              
USDP-83ft-12kHz.deg :                             
USDP-83ft-24kHz.deg :                             
USDP-83ft-48kHz.deg :                             
USDP-83ft-96kHz.deg :                             
USDP-43ft-2kHz.deg :                              
USDP-43ft-6kHz.deg :                              
USDP-43ft-12kHz.deg :                             
USDP-43ft-24kHz.deg :                             
USDP-43ft-48kHz.deg :                             
USDP-43ft-96kHz.deg :                             
USDA-83ft-2kHz.dB :                               
USDA-83ft-6kHz.dB :                               
USDA-83ft-12kHz.dB :                              
USDA-83ft-24kHz.dB :                              
USDA-83ft-48kHz.dB :                              
USDA-83ft-96kHz.dB :                              
USDA-43ft-2kHz.dB :                               
USDA-43ft-6kHz.dB :                               
USDA-43ft-12kHz.dB :                              
USDA-43ft-24kHz.dB :                              
USDA-43ft-48kHz.dB :                              
USDA-43ft-96kHz.dB :                              
UADP-83ft-2kHz.deg :                              
UADP-83ft-6kHz.deg :                              
UADP-83ft-12kHz.deg :                             
UADP-83ft-24kHz.deg :                             
UADP-83ft-48kHz.deg :                             
UADP-83ft-96kHz.deg :                             
UADP-43ft-2kHz.deg :                              
UADP-43ft-6kHz.deg :                              
UADP-43ft-12kHz.deg :                             
UADP-43ft-24kHz.deg :                             
UADP-43ft-48kHz.deg :                             
UADP-43ft-96kHz.deg :                             
UADA-83ft-2kHz.dB :                               
UADA-83ft-6kHz.dB :                               
UADA-83ft-12kHz.dB :                              
UADA-83ft-24kHz.dB :                              
UADA-83ft-48kHz.dB :                              
UADA-83ft-96kHz.dB :                              
UADA-43ft-2kHz.dB :                               
UADA-43ft-6kHz.dB :                               
UADA-43ft-12kHz.dB :                              
UADA-43ft-24kHz.dB :                              
UADA-43ft-48kHz.dB :                              
UADA-43ft-96kHz.dB :                              
UHRP-83ft-2kHz.deg :                              
UHRP-83ft-6kHz.deg :                              
UHRP-83ft-12kHz.deg :                             
UHRP-83ft-24kHz.deg :                             
UHRP-83ft-48kHz.deg :                             
UHRP-83ft-96kHz.deg :                             
UHRP-43ft-2kHz.deg :                              
UHRP-43ft-6kHz.deg :                              
UHRP-43ft-12kHz.deg :                             
UHRP-43ft-24kHz.deg :                             
UHRP-43ft-48kHz.deg :                             
UHRP-43ft-96kHz.deg :                             
UHRA-83ft-2kHz.dB :                               
UHRA-83ft-6kHz.dB :                               
UHRA-83ft-12kHz.dB :                              
UHRA-83ft-24kHz.dB :                              
UHRA-83ft-48kHz.dB :                              
UHRA-83ft-96kHz.dB :                              
UHRA-43ft-2kHz.dB :                               
UHRA-43ft-6kHz.dB :                               
UHRA-43ft-12kHz.dB :                              
UHRA-43ft-24kHz.dB :                              
UHRA-43ft-48kHz.dB :                              
UHRA-43ft-96kHz.dB :                              
UHAP-83ft-2kHz.deg :                              
UHAP-83ft-6kHz.deg :                              
UHAP-83ft-12kHz.deg :                             
UHAP-83ft-24kHz.deg :                             
UHAP-83ft-48kHz.deg :                             
UHAP-83ft-96kHz.deg :                             
UHAP-43ft-2kHz.deg :                              
UHAP-43ft-6kHz.deg :                              
UHAP-43ft-12kHz.deg :                             
UHAP-43ft-24kHz.deg :                             
UHAP-43ft-48kHz.deg :                             
UHAP-43ft-96kHz.deg :                             
UHAA-83ft-2kHz.dB :                               
UHAA-83ft-6kHz.dB :                               
UHAA-83ft-12kHz.dB :                              
UHAA-83ft-24kHz.dB :                              
UHAA-83ft-48kHz.dB :                              
UHAA-83ft-96kHz.dB :                              
UHAA-43ft-2kHz.dB :                               
UHAA-43ft-6kHz.dB :                               
UHAA-43ft-12kHz.dB :                              
UHAA-43ft-24kHz.dB :                              
UHAA-43ft-48kHz.dB :                              
UHAA-43ft-96kHz.dB :                              
~A
# ...
   8.3999999E+02   1.9862215E+01   3.3740037E+00  -2.3353950E+01  -3.4876983E+01  -1.9684046E+01  -8.3243209E+00   4.8639940E+00   5.1684099E+00  -1.3172635E+00  -1.4148447E+01  -2.1397402E+01  -1.5810357E+01   3.0987144E+00   6.8575866E+00   6.0597131E+00   1.6708230E+00  -1.4495833E+00  -1.3541717E+00   4.7453363E-01   1.5912802E+00   2.3926666E+00   1.9867009E+00  -3.0496340E-01  -2.2328616E+00  -1.0489472E+00  -1.9121968E+00  -5.6548883E-01   1.0238518E+00  -1.7145050E+00  -1.0180462E+01   2.2518670E-02  -6.3033120E-01  -1.5383223E+00  -2.8912646E+00  -5.1235335E+00  -9.0914625E+00   5.4244440E-02  -2.3217296E-01  -4.1932595E-01  -1.5532000E-01   4.6354526E-01   8.3953287E-01   5.9418565E-02   9.1135071E-02   7.2960315E-02   1.7634405E-04  -1.2415250E-01  -4.4814569E-01  -2.3064761E+01  -2.2712362E+01  -2.4369396E+01  -2.6188167E+01  -2.9234091E+01  -3.5387842E+01  -1.4778489E+01  -2.2613742E+01  -2.6759331E+01  -2.8877880E+01  -2.8982847E+01  -3.0967707E+01   6.8123517E-01  -1.7333055E+00  -3.1684913E+00  -4.8249516E+00  -6.3847022E+00  -8.3921457E+00   4.4214363E+00   2.3988439E+00   6.0036694E-01  -1.4936955E+00  -3.4531979E+00  -5.2038977E+00   2.5596497E+01   4.1201792E+01   5.0282251E+01   5.5407809E+01   4.7098011E+01   7.8988966E+00   5.4672555E+00   1.3227669E+01   1.8453473E+01   2.1064458E+01   1.8300281E+01   7.7277189E+00   2.0766508E+00   5.6157176E+00   9.0272007E+00   1.3549645E+01   1.9357156E+01   2.3231136E+01  -7.3444362E-03   8.0937242E-01   2.0362198E+00   3.8242469E+00   5.8763935E+00   7.4804869E+00
   8.4499999E+02   1.8426659E+01   1.6792543E+00  -2.4807176E+01  -3.5858072E+01  -2.0250261E+01  -1.0030066E+01   4.1498725E+00   3.4517694E+00  -4.0399257E+00  -1.7992269E+01  -2.5827747E+01  -2.0513746E+01   2.9576555E+00   6.4871263E+00   5.5643294E+00   1.0817336E+00  -1.9851974E+00  -1.7602193E+00   4.5167352E-01   1.4902106E+00   2.1665310E+00   1.5233924E+00  -1.0980767E+00  -3.2883806E+00  -1.0556245E+00  -1.9054875E+00  -5.4174025E-01   1.0462109E+00  -1.7270279E+00  -1.0193923E+01   1.7366799E-02  -6.3319506E-01  -1.5299435E+00  -2.8670338E+00  -5.1058579E+00  -9.1190672E+00   4.9989076E-02  -2.3769911E-01  -4.2280221E-01  -1.5481708E-01   4.6559350E-01   8.3756981E-01   5.8573441E-02   8.9006355E-02   7.0410267E-02  -1.9449408E-04  -1.1879883E-01  -4.3715620E-01  -2.3194644E+01  -2.2897946E+01  -2.4333840E+01  -2.5842999E+01  -2.8878286E+01  -3.5179980E+01  -1.4746693E+01  -2.2619722E+01  -2.6788372E+01  -2.8827744E+01  -2.8741259E+01  -3.0667131E+01   6.7968139E-01  -1.7737776E+00  -3.2320724E+00  -4.8651521E+00  -6.3732186E+00  -8.3643282E+00   4.4281341E+00   2.4090733E+00   6.0382597E-01  -1.5017584E+00  -3.4511133E+00  -5.1654161E+00   2.5479248E+01   4.1001189E+01   5.0128943E+01   5.5589712E+01   4.7850229E+01   8.3671359E+00   5.4555102E+00   1.3197374E+01   1.8441116E+01   2.1145133E+01   1.8545461E+01   8.0133269E+00   2.0667943E+00   5.5841937E+00   8.9630673E+00   1.3459688E+01   1.9317656E+01   2.3314870E+01  -6.9882703E-03   8.0572432E-01   2.0255065E+00   3.8080151E+00   5.8724258E+00   7.5137411E+00
   8.4999999E+02   1.6956284E+01  -1.2484771E-01  -2.6341810E+01  -3.6759068E+01  -2.0648312E+01  -1.1636374E+01   3.4435462E+00   1.7460199E+00  -6.7556997E+00  -2.1821336E+01  -3.0180103E+01  -2.5044770E+01   2.8165746E+00   6.1069395E+00   5.0411647E+00   4.5949852E-01  -2.5301500E+00  -2.1628716E+00   4.2939837E-01   1.3910687E+00   1.9425702E+00   1.0594823E+00  -1.8934538E+00  -4.3344405E+00  -1.0633808E+00  -1.8903648E+00  -5.0833888E-01   1.0763362E+00  -1.7299425E+00  -1.0186354E+01   9.0303138E-03  -6.4647051E-01  -1.5349762E+00  -2.8472513E+00  -5.0833711E+00  -9.1496243E+00   4.5508633E-02  -2.4335748E-01  -4.2527201E-01  -1.5282711E-01   4.6909237E-01   8.3795989E-01   5.7663677E-02   8.6303879E-02   6.5783247E-02  -3.9828844E-03  -1.1538560E-01  -4.2523690E-01  -2.3326239E+01  -2.3026554E+01  -2.4233040E+01  -2.5447023E+01  -2.8502273E+01  -3.4949685E+01  -1.4710766E+01  -2.2609551E+01  -2.6783976E+01  -2.8713049E+01  -2.8405950E+01  -3.0267297E+01   6.7611739E-01  -1.8128313E+00  -3.2872803E+00  -4.8912255E+00  -6.3458472E+00  -8.3246621E+00   4.4339446E+00   2.4186409E+00   6.0700718E-01  -1.5075047E+00  -3.4398830E+00  -5.1088613E+00   2.5402842E+01   4.0822567E+01   5.0034264E+01   5.5869282E+01   4.8713916E+01   8.9046054E+00   5.4484297E+00   1.3180939E+01   1.8456967E+01   2.1270446E+01   1.8855353E+01   8.3684247E+00   2.0626457E+00   5.5579918E+00   8.9044487E+00   1.3382187E+01   1.9300882E+01   2.3430975E+01  -5.4698064E-03   8.0280010E-01   2.0165963E+00   3.7956948E+00   5.8765560E+00   7.5618949E+00
   8.5499999E+02   1.5508223E+01  -1.9194531E+00  -2.7866651E+01  -3.7600298E+01  -2.0933554E+01  -1.3087714E+01   2.7369043E+00   3.5670747E-02  -9.4885280E+00  -2.5660470E+01  -3.4446061E+01  -2.9357715E+01   2.6798159E+00   5.7332680E+00   4.5215704E+00  -1.6037960E-01  -3.0668320E+00  -2.5538485E+00   4.0713027E-01   1.2923033E+00   1.7177214E+00   5.8808142E-01  -2.7009348E+00  -5.3768469E+00  -1.0533367E+00  -1.8625970E+00  -4.8355687E-01   1.0680638E+00  -1.7887422E+00  -1.0226210E+01   6.4486690E-03  -6.4346228E-01  -1.5164895E+00  -2.8135846E+00  -5.0685353E+00  -9.1987912E+00   4.0892001E-02  -2.4479736E-01  -4.2227919E-01  -1.4689490E-01   4.7093998E-01   8.3225620E-01   5.6581544E-02   8.4291687E-02   6.4054089E-02  -1.7364021E-03  -1.0547881E-01  -4.0777583E-01  -2.3433860E+01  -2.3141877E+01  -2.4104754E+01  -2.5018609E+01  -2.8100479E+01  -3.4673170E+01  -1.4669011E+01  -2.2572386E+01  -2.6734424E+01  -2.8530444E+01  -2.7977981E+01  -2.9773566E+01   6.7169887E-01  -1.8510916E+00  -3.3413597E+00  -4.9124468E+00  -6.3131944E+00  -8.2798633E+00   4.4383345E+00   2.4276149E+00   6.1165338E-01  -1.5084219E+00  -3.4171695E+00  -5.0321919E+00   2.5314397E+01   4.0670432E+01   4.9965635E+01   5.6188425E+01   4.9667857E+01   9.5315399E+00   5.4529581E+00   1.3177063E+01   1.8497674E+01   2.1448884E+01   1.9245751E+01   8.8093441E+00   2.0575240E+00   5.5322775E+00   8.8486868E+00   1.3307089E+01   1.9289924E+01   2.3568442E+01  -2.0553008E-03   8.0240181E-01   2.0098947E+00   3.7874208E+00   5.8903458E+00   7.6282990E+00
   8.5999999E+02   1.4067076E+01  -3.7266985E+00  -2.9385866E+01  -3.8387188E+01  -2.1123928E+01  -1.4415765E+01   2.0460377E+00  -1.6434543E+00  -1.2178888E+01  -2.9429194E+01  -3.8567583E+01  -3.3408674E+01   2.5448032E+00   5.3603115E+00   3.9986201E+00  -7.8319905E-01  -3.6007669E+00  -2.9395825E+00   3.8575201E-01   1.1963883E+00   1.4971913E+00   1.2134890E-01  -3.5011122E+00  -6.3973106E+00  -1.0434849E+00  -1.8381163E+00  -4.6641885E-01   1.0668767E+00  -1.8279955E+00  -1.0241891E+01   3.4776153E-03  -6.4647461E-01  -1.5084937E+00  -2.7847452E+00  -5.0514610E+00  -9.2500356E+00   3.6444064E-02  -2.4566168E-01  -4.2008706E-01  -1.4300239E-01   4.7261994E-01   8.2778996E-01   5.5678090E-02   8.2447169E-02   6.1500324E-02  -1.5874342E-03  -9.6644603E-02  -3.8923216E-01  -2.3545226E+01  -2.3221242E+01  -2.3936872E+01  -2.4563419E+01  -2.7681594E+01  -3.4365760E+01  -1.4629749E+01  -2.2532559E+01  -2.6657333E+01  -2.8285351E+01  -2.7459160E+01  -2.9185560E+01   6.6778565E-01  -1.8873663E+00  -3.3887280E+00  -4.9240729E+00  -6.2710807E+00  -8.2269189E+00   4.4440893E+00   2.4355175E+00   6.1472677E-01  -1.5080935E+00  -3.3863041E+00  -4.9385626E+00   2.5252848E+01   4.0518623E+01   4.9906823E+01   5.6544026E+01   5.0729182E+01   1.0281207E+01   5.4663886E+00   1.3202958E+01   1.8574023E+01   2.1675470E+01   1.9707806E+01   9.3340922E+00   2.0537843E+00   5.5085771E+00   8.7929159E+00   1.3231022E+01   1.9280449E+01   2.3728611E+01  -1.3649814E-03   8.0200031E-01   2.0053220E+00   3.7831565E+00   5.9120582E+00   7.7105706E+00
   8.6499999E+02   1.2602585E+01  -5.5926278E+00  -3.0925452E+01  -3.9035219E+01  -2.1100586E+01  -1.5559733E+01   1.3562481E+00  -3.3190168E+00  -1.4860265E+01  -3.3150229E+01  -4.2518245E+01  -3.7123332E+01   2.4103225E+00   4.9803450E+00   3.4561719E+00  -1.4260376E+00  -4.1299822E+00  -3.3120308E+00   3.6415338E-01   1.0999496E+00   1.2744751E+00  -3.5196503E-01  -4.3075946E+00  -7.4024159E+00  -1.0422193E+00  -1.8114806E+00  -4.4131569E-01   1.0712639E+00  -1.8702529E+00  -1.0275652E+01  -8.4200894E-04  -6.4843448E-01  -1.4977415E+00  -2.7545878E+00  -5.0397696E+00  -9.3126933E+00   2.9924779E-02  -2.4937154E-01  -4.1975473E-01  -1.3969812E-01   4.7455882E-01   8.2416113E-01   5.4474888E-02   8.0241816E-02   5.8855720E-02  -8.0697233E-04  -8.6788278E-02  -3.6945870E-01  -2.3631579E+01  -2.3268442E+01  -2.3712412E+01  -2.4057697E+01  -2.7255463E+01  -3.4040576E+01  -1.4586903E+01  -2.2464452E+01  -2.6532920E+01  -2.7970986E+01  -2.6851243E+01  -2.8513903E+01   6.6368638E-01  -1.9216741E+00  -3.4309762E+00  -4.9226042E+00  -6.2152730E+00  -8.1648799E+00   4.4481398E+00   2.4423050E+00   6.1908476E-01  -1.5027270E+00  -3.3434862E+00  -4.8251729E+00   2.5195651E+01   4.0404326E+01   4.9897176E+01   5.6978466E+01   5.1900839E+01   1.1091922E+01   5.4914396E+00   1.3236008E+01   1.8669148E+01   2.1946853E+01   2.0243931E+01   9.9460383E+00   2.0520627E+00   5.4889190E+00   8.7436520E+00   1.3164647E+01   1.9290012E+01   2.3919948E+01   1.3878917E-03   8.0410067E-01   2.0023835E+00   3.7818809E+00   5.9411824E+00   7.8090404E+00
