~V
VERS. 2.0 : CWLS LOG ASCII STANDARD -VERSION 2.0
WRAP. NO : ONE LINE PER DEPTH STEP
~W
STRT.FT 0.0000 :START DEPTH                       
STOP.FT 1400.0000 :STOP DEPTH                     
STEP.FT 5.0000 :STEP                              
NULL. -999.25 :NULL VALUE
FLD.  :FIELD
PROV.  :PROVINCE
COMP.  :COMPANY
DATE.  :DATE
LOC.  :LOCATION
SRVC.  :SERVICE COMPANY
UWI.  :UNIQUE WELL ID
WELL. Well1 :WELL
~C
DEPTH.FT  :DEPTH
USDP-83ft-2kHz.deg :                              
USDP-83ft-6kHz.deg :                              
USDP-83ft-12kHz.deg :                             
USDP-83ft-24kHz.deg :                             
USDP-83ft-48kHz.deg :                             
USDP-83ft-96kHz.deg :                             
USDP-43ft-2kHz.deg :                              
USDP-43ft-6kHz.deg :                              
USDP-43ft-12kHz.deg :                             
USDP-43ft-24kHz.deg :                             
USDP-43ft-48kHz.deg :                             
USDP-43ft-96kHz.deg :                             
USDA-83ft-2kHz.dB :                               
USDA-83ft-6kHz.dB :                               
USDA-83ft-12kHz.dB :                              
USDA-83ft-24kHz.dB :                              
USDA-83ft-48kHz.dB :                              
USDA-83ft-96kHz.dB :                              
USDA-43ft-2kHz.dB :                               
USDA-43ft-6kHz.dB :                               
USDA-43ft-12kHz.dB :                              
USDA-43ft-24kHz.dB :                              
USDA-43ft-48kHz.dB :                              
USDA-43ft-96kHz.dB :                              
UADP-83ft-2kHz.deg :                              
UADP-83ft-6kHz.deg :                              
UADP-83ft-12kHz.deg :                             
UADP-83ft-24kHz.deg :                             
UADP-83ft-48kHz.deg :                             
UADP-83ft-96kHz.deg :                             
UADP-43ft-2kHz.deg :                              
UADP-43ft-6kHz.deg :                              
UADP-43ft-12kHz.deg :                             
UADP-43ft-24kHz.deg :                             
UADP-43ft-48kHz.deg :                             
UADP-43ft-96kHz.deg :                             
UADA-83ft-2kHz.dB :                               
UADA-83ft-6kHz.dB :                               
UADA-83ft-12kHz.dB :                              
UADA-83ft-24kHz.dB :                              
UADA-83ft-48kHz.dB :                              
UADA-83ft-96kHz.dB :                              
UADA-43ft-2kHz.dB :                               
UADA-43ft-6kHz.dB :                               
UADA-43ft-12kHz.dB :                              
UADA-43ft-24kHz.dB :                              
UADA-43ft-48kHz.dB :                              
UADA-43ft-96kHz.dB :                              
UHRP-83ft-2kHz.deg :                              
UHRP-83ft-6kHz.deg :                              
UHRP-83ft-12kHz.deg :                             
UHRP-83ft-24kHz.deg :                             
UHRP-83ft-48kHz.deg :                             
UHRP-83ft-96kHz.deg :                             
UHRP-43ft-2kHz.deg :                              
UHRP-43ft-6kHz.deg :                              
UHRP-43ft-12kHz.deg :                             
UHRP-43ft-24kHz.deg :                             
UHRP-43ft-48kHz.deg :                             
UHRP-43ft-96kHz.deg :                             
UHRA-83ft-2kHz.dB :                               
UHRA-83ft-6kHz.dB :                               
UHRA-83ft-12kHz.dB :                              
UHRA-83ft-24kHz.dB :                              
UHRA-83ft-48kHz.dB :                              
UHRA-83ft-96kHz.dB :                              
UHRA-43ft-2kHz.dB :                               
UHRA-43ft-6kHz.dB :                               
UHRA-43ft-12kHz.dB :                              
UHRA-43ft-24kHz.dB :                              
UHRA-43ft-48kHz.dB :                              
UHRA-43ft-96kHz.dB :                              
UHAP-83ft-2kHz.deg :                              
UHAP-83ft-6kHz.deg :                              
UHAP-83ft-12kHz.deg :                             
UHAP-83ft-24kHz.deg :                             
UHAP-83ft-48kHz.deg :                             
UHAP-83ft-96kHz.deg :                             
UHAP-43ft-2kHz.deg :                              
UHAP-43ft-6kHz.deg :                              
UHAP-43ft-12kHz.deg :                             
UHAP-43ft-24kHz.deg :                             
UHAP-43ft-48kHz.deg :                             
UHAP-43ft-96kHz.deg :                             
UHAA-83ft-2kHz.dB :                               
UHAA-83ft-6kHz.dB :                               
UHAA-83ft-12kHz.dB :                              
UHAA-83ft-24kHz.dB :                              
UHAA-83ft-48kHz.dB :                              
UHAA-83ft-96kHz.dB :                              
UHAA-43ft-2kHz.dB :                               
UHAA-43ft-6kHz.dB :                               
UHAA-43ft-12kHz.dB :                              
UHAA-43ft-24kHz.dB :                              
UHAA-43ft-48kHz.dB :                              
UHAA-43ft-96kHz.dB :                              
~A
# ...
   3.6000000E+02  -2.0225488E+01  -2.8209088E+01  -3.0276176E+01  -3.4351256E+01  -4.2039733E+01  -4.7402879E+01  -4.3828436E+00  -8.1273781E+00  -9.8454809E+00  -9.7613806E+00  -6.8128244E+00   3.6891185E-01  -1.8764584E+00  -4.8670217E+00  -6.8462669E+00  -8.7560504E+00  -1.1391998E+01  -1.5971642E+01  -2.7227406E-01  -9.4325626E-01  -1.6966169E+00  -2.6268639E+00  -3.5748294E+00  -4.2291231E+00  -6.9060262E-01  -2.6847440E+00  -5.0036828E+00  -8.1608632E+00  -1.1833405E+01  -1.4510985E+01  -4.4690167E-02  -4.1124689E-01  -8.4265206E-01  -1.3258053E+00  -1.5066360E+00  -8.3493535E-01   8.7842481E-02   4.9449682E-02  -1.1631636E-01  -4.9898934E-01  -1.2447048E+00  -2.6235051E+00   2.7969074E-02   2.9786189E-02  -1.8476350E-03  -8.9966584E-02  -2.4824484E-01  -4.2263875E-01  -2.0902483E+01  -2.2162943E+01  -2.4492728E+01  -2.8305074E+01  -3.2581151E+01  -3.6558624E+01  -9.6822007E+00  -1.4491107E+01  -1.7703933E+01  -2.1417954E+01  -2.5869414E+01  -3.0479031E+01   1.3469322E+00  -9.0478584E-01  -2.2944310E+00  -3.9578948E+00  -5.9902990E+00  -8.4245560E+00   4.8566770E+00   3.6066305E+00   2.5686355E+00   1.3284528E+00  -2.0109154E-01  -2.1334059E+00   1.2702186E+01   1.5060518E+01   1.1784456E+01   3.6551083E+00  -6.8953066E+00  -1.5229987E+01   1.8336875E+00   3.7830932E+00   4.3915138E+00   3.2409669E+00  -1.2354907E-02  -3.9309413E+00   1.4662296E+00   3.4436199E+00   4.8510272E+00   5.7798000E+00   5.6822190E+00   4.4986071E+00   1.6849440E-02   3.3569343E-01   7.4641566E-01   1.2185511E+00   1.4819764E+00   1.2745094E+00
   3.6500000E+02  -2.1213262E+01  -2.9463249E+01  -3.1482253E+01  -3.5621923E+01  -4.3714130E+01  -5.0167030E+01  -4.6324224E+00  -8.6075282E+00  -1.0446558E+01  -1.0400205E+01  -7.3881885E+00   8.2349754E-03  -1.9741414E+00  -5.1142957E+00  -7.1770940E+00  -9.1425982E+00  -1.1828002E+01  -1.6479402E+01  -2.8661648E-01  -9.9489846E-01  -1.7912918E+00  -2.7743808E+00  -3.7778807E+00  -4.4887893E+00  -6.8273788E-01  -2.6885198E+00  -5.0230791E+00  -8.2157133E+00  -1.2012816E+01  -1.5195311E+01  -3.9221729E-02  -4.0452444E-01  -8.3964165E-01  -1.3397603E+00  -1.5610712E+00  -9.4689039E-01   9.0891338E-02   5.3918608E-02  -1.1017759E-01  -4.8771471E-01  -1.2177385E+00  -2.5658322E+00   2.8715351E-02   3.1582518E-02   1.2852644E-03  -8.5240551E-02  -2.4376821E-01  -4.2546882E-01  -2.0811143E+01  -2.1974166E+01  -2.4252589E+01  -2.8053710E+01  -3.2428927E+01  -3.6675935E+01  -9.7169677E+00  -1.4536294E+01  -1.7731859E+01  -2.1442381E+01  -2.5948402E+01  -3.0641124E+01   1.3524395E+00  -8.8440417E-01  -2.2565342E+00  -3.8946208E+00  -5.8977178E+00  -8.3120491E+00   4.8539979E+00   3.5977458E+00   2.5566051E+00   1.3188135E+00  -2.0984193E-01  -2.1531729E+00   1.2797069E+01   1.5301315E+01   1.2063999E+01   3.9045149E+00  -6.6682676E+00  -1.5027857E+01   1.8435134E+00   3.8502069E+00   4.4931038E+00   3.3774768E+00   1.5927954E-01  -3.7991469E+00   1.4632442E+00   3.4593067E+00   4.8914890E+00   5.8417057E+00   5.7598032E+00   4.5957582E+00   1.3335751E-02   3.3408622E-01   7.5145905E-01   1.2312765E+00   1.5095356E+00   1.3233068E+00
   3.7000000E+02  -2.2194708E+01  -3.0693819E+01  -3.2641460E+01  -3.6822870E+01  -4.5317247E+01  -5.2896758E+01  -4.8900148E+00  -9.1030321E+00  -1.1066109E+01  -1.1059227E+01  -7.9906567E+00  -3.9956161E-01  -2.0732122E+00  -5.3622512E+00  -7.5068723E+00  -9.5220519E+00  -1.2247035E+01  -1.6948953E+01  -3.0138233E-01  -1.0481966E+00  -1.8888970E+00  -2.9259520E+00  -3.9856898E+00  -4.7553494E+00  -6.7543754E-01  -2.6934575E+00  -5.0424559E+00  -8.2684404E+00  -1.2188498E+01  -1.5863550E+01  -3.3409555E-02  -3.9885100E-01  -8.4045975E-01  -1.3594669E+00  -1.6220736E+00  -1.0670428E+00   9.3674044E-02   5.8243593E-02  -1.0439356E-01  -4.7645728E-01  -1.1899217E+00  -2.5019105E+00   2.9491467E-02   3.3624124E-02   4.5375641E-03  -8.0837160E-02  -2.4007029E-01  -4.2958652E-01  -2.0696503E+01  -2.1790907E+01  -2.4003544E+01  -2.7784037E+01  -3.2273402E+01  -3.6789530E+01  -9.7561861E+00  -1.4580523E+01  -1.7758234E+01  -2.1465226E+01  -2.6024766E+01  -3.0803772E+01   1.3606317E+00  -8.6107886E-01  -2.2176663E+00  -3.8270101E+00  -5.8001710E+00  -8.1947538E+00   4.8504299E+00   3.5875054E+00   2.5437001E+00   1.3082401E+00  -2.1912556E-01  -2.1728863E+00   1.2879416E+01   1.5577773E+01   1.2364109E+01   4.1587760E+00  -6.4270172E+00  -1.4816082E+01   1.8554980E+00   3.9145640E+00   4.5970705E+00   3.5232421E+00   3.4101431E-01  -3.6599005E+00   1.4567897E+00   3.4743298E+00   4.9362303E+00   5.9065486E+00   5.8410476E+00   4.6977771E+00   1.0295577E-02   3.3289402E-01   7.5605351E-01   1.2444418E+00   1.5385688E+00   1.3745744E+00
   3.7500000E+02  -2.3197468E+01  -3.1918320E+01  -3.3762709E+01  -3.7965908E+01  -4.6850200E+01  -5.5588448E+01  -5.1513919E+00  -9.6100787E+00  -1.1705028E+01  -1.1748201E+01  -8.6397425E+00  -8.8161960E-01  -2.1745742E+00  -5.6169278E+00  -7.8411399E+00  -9.9010669E+00  -1.2656254E+01  -1.7386224E+01  -3.1610904E-01  -1.1018235E+00  -1.9875453E+00  -3.0797757E+00  -4.1975537E+00  -5.0302719E+00  -6.6200321E-01  -2.6917976E+00  -5.0617506E+00  -8.3296045E+00  -1.2376740E+01  -1.6539320E+01  -2.8660379E-02  -3.9329776E-01  -8.3956444E-01  -1.3760282E+00  -1.6806272E+00  -1.1918875E+00   9.6927266E-02   6.4029083E-02  -9.6347552E-02  -4.6313179E-01  -1.1601729E+00  -2.4318314E+00   3.0211546E-02   3.5309686E-02   7.4896747E-03  -7.6426573E-02  -2.3574814E-01  -4.3254563E-01  -2.0610304E+01  -2.1566860E+01  -2.3723202E+01  -2.7507632E+01  -3.2107089E+01  -3.6892094E+01  -9.8008393E+00  -1.4622923E+01  -1.7781997E+01  -2.1489946E+01  -2.6104963E+01  -3.0976524E+01   1.3641532E+00  -8.4141687E-01  -2.1754692E+00  -3.7563665E+00  -5.6998108E+00  -8.0735698E+00   4.8474930E+00   3.5769546E+00   2.5314314E+00   1.2983281E+00  -2.2778399E-01  -2.1921013E+00   1.3011772E+01   1.5833116E+01   1.2661843E+01   4.4375240E+00  -6.1704002E+00  -1.4596099E+01   1.8789658E+00   3.9812137E+00   4.7045373E+00   3.6814745E+00   5.3534527E-01  -3.5088243E+00   1.4561236E+00   3.4955142E+00   4.9817328E+00   5.9753573E+00   5.9288956E+00   4.8072662E+00   6.6487952E-03   3.3287692E-01   7.6074124E-01   1.2585659E+00   1.5698604E+00   1.4292144E+00
   3.8000000E+02  -2.4182938E+01  -3.3107512E+01  -3.4823630E+01  -3.9028265E+01  -4.8290834E+01  -5.8182442E+01  -5.4212431E+00  -1.0135875E+01  -1.2367422E+01  -1.2464676E+01  -9.3272122E+00  -1.4317191E+00  -2.2758679E+00  -5.8698635E+00  -8.1708511E+00  -1.0269119E+01  -1.3045364E+01  -1.7782295E+01  -3.3110705E-01  -1.1570760E+00  -2.0893453E+00  -3.2381333E+00  -4.4149258E+00  -5.3133316E+00  -6.5509706E-01  -2.6958340E+00  -5.0805747E+00  -8.3841540E+00  -1.2549415E+01  -1.7163763E+01  -2.2757055E-02  -3.8364161E-01  -8.3563336E-01  -1.3950406E+00  -1.7490133E+00  -1.3324434E+00   9.9980623E-02   6.8438363E-02  -9.0099559E-02  -4.5126061E-01  -1.1311640E+00  -2.3575653E+00   3.1355590E-02   3.7702551E-02   1.1833480E-02  -7.0273627E-02  -2.3009262E-01  -4.3548604E-01  -2.0514690E+01  -2.1347877E+01  -2.3427640E+01  -2.7216372E+01  -3.1933269E+01  -3.6984421E+01  -9.8609343E+00  -1.4674249E+01  -1.7797906E+01  -2.1508253E+01  -2.6183976E+01  -3.1156683E+01   1.3714069E+00  -8.2037910E-01  -2.1319549E+00  -3.6813273E+00  -5.5949707E+00  -7.9474671E+00   4.8473930E+00   3.5644343E+00   2.5181801E+00   1.2890326E+00  -2.3517421E-01  -2.2099311E+00   1.3147960E+01   1.6118961E+01   1.2968508E+01   4.7229179E+00  -5.9024282E+00  -1.4367262E+01   1.9265385E+00   4.0686674E+00   4.8118608E+00   3.8460066E+00   7.4099771E-01  -3.3456581E+00   1.4510013E+00   3.5177740E+00   5.0304668E+00   6.0459339E+00   6.0197183E+00   4.9204564E+00  -2.1434990E-03   3.3524732E-01   7.6695837E-01   1.2731723E+00   1.6025761E+00   1.4865461E+00
   3.8500000E+02  -2.5169656E+01  -3.4264698E+01  -3.5829652E+01  -4.0014781E+01  -4.9639215E+01  -6.0680638E+01  -5.6957425E+00  -1.0672720E+01  -1.3045819E+01  -1.3201700E+01  -1.0046348E+01  -2.0418733E+00  -2.3786400E+00  -6.1242311E+00  -8.4986856E+00  -1.0629902E+01  -1.3417793E+01  -1.8140889E+01  -3.4629446E-01  -1.2130611E+00  -2.1927594E+00  -3.3990000E+00  -4.6354022E+00  -5.6016660E+00  -6.4429450E-01  -2.6959830E+00  -5.1006799E+00  -8.4409741E+00  -1.2717427E+01  -1.7755204E+01  -1.6721283E-02  -3.7615752E-01  -8.3433850E-01  -1.4162999E+00  -1.8207601E+00  -1.4831167E+00   1.0256061E-01   7.3530739E-02  -8.3093729E-02  -4.3919723E-01  -1.1019322E+00  -2.2789695E+00   3.2000037E-02   3.9634749E-02   1.5440136E-02  -6.4968881E-02  -2.2513581E-01  -4.3906086E-01  -2.0391220E+01  -2.1085727E+01  -2.3113522E+01  -2.6912396E+01  -3.1747208E+01  -3.7067374E+01  -9.9106105E+00  -1.4721010E+01  -1.7814824E+01  -2.1524132E+01  -2.6258707E+01  -3.1334617E+01   1.3714323E+00  -7.9786570E-01  -2.0846557E+00  -3.6029491E+00  -5.4858380E+00  -7.8165529E+00   4.8443669E+00   3.5518247E+00   2.5041268E+00   1.2786990E+00  -2.4309255E-01  -2.2276234E+00   1.3257755E+01   1.6381372E+01   1.3286228E+01   5.0235836E+00  -5.6244574E+00  -1.4128960E+01   1.9551277E+00   4.1487694E+00   4.9268065E+00   4.0191550E+00   9.5475756E-01  -3.1762755E+00   1.4547218E+00   3.5401565E+00   5.0796151E+00   6.1201465E+00   6.1150726E+00   5.0387952E+00  -7.2340661E-03   3.3627936E-01   7.7295399E-01   1.2887713E+00   1.6370644E+00   1.5463283E+00
