~V
VERS. 2.0 : CWLS LOG ASCII STANDARD -VERSION 2.0
WRAP. NO : ONE LINE PER DEPTH STEP
~W
STRT.FT 0.0000 :START DEPTH                       
STOP.FT 1400.0000 :STOP DEPTH                     
STEP.FT 5.0000 :STEP                              
NULL. -999.25 :NULL VALUE
FLD.  :FIELD
PROV.  :PROVINCE
COMP.  :COMPANY
DATE.  :DATE
LOC.  :LOCATION
SRVC.  :SERVICE COMPANY
UWI.  :UNIQUE WELL ID
WELL. Well1 :WELL
~C
DEPTH.FT  :DEPTH
USDP-83ft-2kHz.deg :                              
USDP-83ft-6kHz.deg :                              
USDP-83ft-12kHz.deg :                             
USDP-83ft-24kHz.deg :                             
USDP-83ft-48kHz.deg :                             
USDP-83ft-96kHz.deg :                             
USDP-43ft-2kHz.deg :                              
USDP-43ft-6kHz.deg :                              
USDP-43ft-12kHz.deg :                             
USDP-43ft-24kHz.deg :                             
USDP-43ft-48kHz.deg :                             
USDP-43ft-96kHz.deg :                             
USDA-83ft-2kHz.dB :                               
USDA-83ft-6kHz.dB :                               
USDA-83ft-12kHz.dB :                              
USDA-83ft-24kHz.dB :                              
USDA-83ft-48kHz.dB :                              
USDA-83ft-96kHz.dB :                              
USDA-43ft-2kHz.dB :                               
USDA-43ft-6kHz.dB :                               
USDA-43ft-12kHz.dB :                              
USDA-43ft-24kHz.dB :                              
USDA-43ft-48kHz.dB :                              
USDA-43ft-96kHz.dB :                              
UADP-83ft-2kHz.deg :                              
UADP-83ft-6kHz.deg :                              
UADP-83ft-12kHz.deg :                             
UADP-83ft-24kHz.deg :                             
UADP-83ft-48kHz.deg :                             
UADP-83ft-96kHz.deg :                             
UADP-43ft-2kHz.deg :                              
UADP-43ft-6kHz.deg :                              
UADP-43ft-12kHz.deg :                             
UADP-43ft-24kHz.deg :                             
UADP-43ft-48kHz.deg :                             
UADP-43ft-96kHz.deg :                             
UADA-83ft-2kHz.dB :                               
UADA-83ft-6kHz.dB :                               
UADA-83ft-12kHz.dB :                              
UADA-83ft-24kHz.dB :                              
UADA-83ft-48kHz.dB :                              
UADA-83ft-96kHz.dB :                              
UADA-43ft-2kHz.dB :                               
UADA-43ft-6kHz.dB :                               
UADA-43ft-12kHz.dB :                              
UADA-43ft-24kHz.dB :                              
UADA-43ft-48kHz.dB :                              
UADA-43ft-96kHz.dB :                              
UHRP-83ft-2kHz.deg :                              
UHRP-83ft-6kHz.deg :                              
UHRP-83ft-12kHz.deg :                             
UHRP-83ft-24kHz.deg :                             
UHRP-83ft-48kHz.deg :                             
UHRP-83ft-96kHz.deg :                             
UHRP-43ft-2kHz.deg :                              
UHRP-43ft-6kHz.deg :                              
UHRP-43ft-12kHz.deg :                             
UHRP-43ft-24kHz.deg :                             
UHRP-43ft-48kHz.deg :                             
UHRP-43ft-96kHz.deg :                             
UHRA-83ft-2kHz.dB :                               
UHRA-83ft-6kHz.dB :                               
UHRA-83ft-12kHz.dB :                              
UHRA-83ft-24kHz.dB :                              
UHRA-83ft-48kHz.dB :                              
UHRA-83ft-96kHz.dB :                              
UHRA-43ft-2kHz.dB :                               
UHRA-43ft-6kHz.dB :                               
UHRA-43ft-12kHz.dB :                              
UHRA-43ft-24kHz.dB :                              
UHRA-43ft-48kHz.dB :                              
UHRA-43ft-96kHz.dB :                              
UHAP-83ft-2kHz.deg :                              
UHAP-83ft-6kHz.deg :                              
UHAP-83ft-12kHz.deg :                             
UHAP-83ft-24kHz.deg :                             
UHAP-83ft-48kHz.deg :                             
UHAP-83ft-96kHz.deg :                             
UHAP-43ft-2kHz.deg :                              
UHAP-43ft-6kHz.deg :                              
UHAP-43ft-12kHz.deg :                             
UHAP-43ft-24kHz.deg :                             
UHAP-43ft-48kHz.deg :                             
UHAP-43ft-96kHz.deg :                             
UHAA-83ft-2kHz.dB :                               
UHAA-83ft-6kHz.dB :                               
UHAA-83ft-12kHz.dB :                              
UHAA-83ft-24kHz.dB :                              
UHAA-83ft-48kHz.dB :                              
UHAA-83ft-96kHz.dB :                              
UHAA-43ft-2kHz.dB :                               
UHAA-43ft-6kHz.dB :                               
UHAA-43ft-12kHz.dB :                              
UHAA-43ft-24kHz.dB :                              
UHAA-43ft-48kHz.dB :                              
UHAA-43ft-96kHz.dB :                              
~A
# ...
   7.4999999E+02   4.3575743E+01   1.9868251E+01  -1.3225678E+01  -2.3674509E+01  -8.6411566E+00   1.6087636E+01   1.9073428E+01   3.7071938E+01   4.3653005E+01   3.9351863E+01   3.1633418E+01   3.6396438E+01   6.0726500E+00   1.3347919E+01   1.2714139E+01   8.7578874E+00   5.5813649E+00   4.7397309E+00   1.0088798E+00   4.0548636E+00   7.6181495E+00   1.1224203E+01   1.3031848E+01   1.3747536E+01  -6.4321391E-01  -2.0592734E+00  -1.1349850E+00   1.3054160E-01  -2.2349370E+00  -1.0635701E+01   3.1469051E-01  -2.3159996E-01  -1.2878450E+00  -3.1183901E+00  -5.7869270E+00  -9.8743721E+00   1.2374502E-01  -1.1641548E-01  -3.2952740E-01  -1.5732658E-01   3.8826826E-01   7.7311452E-01   8.3835769E-02   1.6966367E-01   2.0349039E-01   1.5876411E-01   5.7465078E-03  -2.6071471E-01  -1.8416381E+01  -1.4597046E+01  -1.9844966E+01  -2.7693758E+01  -3.1152174E+01  -3.2382641E+01  -1.4534039E+01  -1.9035138E+01  -1.9429172E+01  -1.8847697E+01  -1.9250972E+01  -2.1895440E+01   7.2134652E-01  -5.6014302E-01  -1.1395441E+00  -2.8671236E+00  -5.2091092E+00  -7.5355087E+00   4.2424736E+00   2.1710494E+00   7.2235618E-01  -5.6069875E-01  -1.6440612E+00  -2.8057052E+00   2.9400591E+01   4.8746866E+01   6.0405254E+01   6.3957256E+01   4.9864554E+01   1.3223041E+01   7.0189281E+00   1.6926028E+01   2.4109735E+01   2.8606205E+01   2.6602482E+01   1.5897063E+01   2.3719389E+00   6.4051845E+00   1.0619138E+01   1.6245895E+01   2.2301643E+01   2.5810347E+01   3.0805602E-02   1.0346800E+00   2.5529784E+00   4.8467491E+00   7.5541103E+00   9.7489270E+00
   7.5499999E+02   4.2432735E+01   1.9999713E+01  -1.2642138E+01  -2.3562568E+01  -8.7213298E+00   1.5908469E+01   1.8211183E+01   3.5324371E+01   4.1689458E+01   3.8097971E+01   3.1713662E+01   3.7363045E+01   5.8808586E+00   1.3008413E+01   1.2504005E+01   8.5961341E+00   5.3968690E+00   4.5386711E+00   9.6956505E-01   3.8666763E+00   7.2353885E+00   1.0642064E+01   1.2403272E+01   1.3211011E+01  -6.9716557E-01  -2.0682728E+00  -1.1201803E+00   1.8851183E-01  -2.1927015E+00  -1.0597357E+01   2.8423537E-01  -2.7345779E-01  -1.3248748E+00  -3.1175422E+00  -5.7497871E+00  -9.8515969E+00   1.1963276E-01  -1.2543738E-01  -3.4025633E-01  -1.6285554E-01   3.8956990E-01   7.7644053E-01   8.1879480E-02   1.6299916E-01   1.9177382E-01   1.4346583E-01  -5.6567433E-03  -2.6947494E-01  -1.8774809E+01  -1.5291301E+01  -2.0314179E+01  -2.7758400E+01  -3.1197373E+01  -3.2784781E+01  -1.4597865E+01  -1.9438921E+01  -2.0217375E+01  -1.9942160E+01  -2.0358917E+01  -2.2873527E+01   7.2300584E-01  -6.4633122E-01  -1.2978234E+00  -3.0309433E+00  -5.3312390E+00  -7.6420175E+00   4.2551218E+00   2.1839845E+00   6.9846634E-01  -6.6853799E-01  -1.8518276E+00  -3.0880576E+00   2.9078634E+01   4.8125020E+01   5.9398091E+01   6.2719671E+01   4.8765168E+01   1.2077622E+01   6.8515679E+00   1.6540444E+01   2.3487694E+01   2.7658891E+01   2.5374597E+01   1.4644026E+01   2.3423067E+00   6.3464355E+00   1.0508489E+01   1.6028275E+01   2.1994265E+01   2.5436499E+01   2.5961394E-02   1.0119435E+00   2.5059212E+00   4.7497270E+00   7.3676690E+00   9.4534233E+00
   7.5999999E+02   4.1255338E+01   1.9922178E+01  -1.2265504E+01  -2.3593961E+01  -8.9220533E+00   1.5498455E+01   1.7355683E+01   3.3559217E+01   3.9613746E+01   3.6524899E+01   3.1275669E+01   3.7724321E+01   5.6937335E+00   1.2663016E+01   1.2262044E+01   8.3912731E+00   5.1711955E+00   4.3052287E+00   9.3168811E-01   3.6863891E+00   6.8662620E+00   1.0066605E+01   1.1746352E+01   1.2607958E+01  -7.3306012E-01  -2.0331335E+00  -1.0576226E+00   2.7975272E-01  -2.1319472E+00  -1.0548797E+01   2.5906280E-01  -3.0547078E-01  -1.3494041E+00  -3.1023369E+00  -5.6908829E+00  -9.7852993E+00   1.1481847E-01  -1.3149570E-01  -3.4280229E-01  -1.5666702E-01   4.0386277E-01   7.9299133E-01   8.0178777E-02   1.5729941E-01   1.8175507E-01   1.3040070E-01  -1.5267026E-02  -2.7759209E-01  -1.9137317E+01  -1.5940698E+01  -2.0760224E+01  -2.7830263E+01  -3.1243542E+01  -3.3184911E+01  -1.4657763E+01  -1.9818774E+01  -2.0957502E+01  -2.0976525E+01  -2.1420464E+01  -2.3831392E+01   7.1892655E-01  -7.3368942E-01  -1.4512110E+00  -3.1914712E+00  -5.4519374E+00  -7.7462769E+00   4.2683100E+00   2.1969915E+00   6.7728704E-01  -7.6790006E-01  -2.0454346E+00  -3.3541768E+00   2.8790026E+01   4.7528621E+01   5.8486124E+01   6.1664114E+01   4.7880352E+01   1.1142198E+01   6.7000605E+00   1.6182829E+01   2.2907468E+01   2.6788142E+01   2.4265471E+01   1.3517667E+01   2.3215609E+00   6.2942793E+00   1.0403407E+01   1.5827883E+01   2.1722170E+01   2.5113619E+01   2.0466839E-02   9.9083196E-01   2.4613030E+00   4.6574783E+00   7.1939273E+00   9.1827003E+00
   7.6499999E+02   4.0066181E+01   1.9743139E+01  -1.1995381E+01  -2.3695480E+01  -9.1951662E+00   1.4934890E+01   1.6511410E+01   3.1786534E+01   3.7443382E+01   3.4658673E+01   3.0333369E+01   3.7476402E+01   5.5100589E+00   1.2317128E+01   1.2005820E+01   8.1671937E+00   4.9288870E+00   4.0602110E+00   8.9537496E-01   3.5145182E+00   6.5120221E+00   9.5012883E+00   1.1067709E+01   1.1943345E+01  -7.7427531E-01  -2.0332191E+00  -1.0225771E+00   3.6466468E-01  -2.0560243E+00  -1.0479100E+01   2.3151931E-01  -3.4598661E-01  -1.3842238E+00  -3.1038815E+00  -5.6568411E+00  -9.7405136E+00   1.1130601E-01  -1.3937884E-01  -3.5150148E-01  -1.5855615E-01   4.1099547E-01   8.0457107E-01   7.8165742E-02   1.5078627E-01   1.7035869E-01   1.1544457E-01  -2.9140400E-02  -2.9359149E-01  -1.9472819E+01  -1.6568314E+01  -2.1171242E+01  -2.7869171E+01  -3.1265943E+01  -3.3553770E+01  -1.4707510E+01  -2.0166061E+01  -2.1646279E+01  -2.1949792E+01  -2.2433267E+01  -2.4764815E+01   7.1810101E-01  -8.1584038E-01  -1.5978303E+00  -3.3411827E+00  -5.5609387E+00  -7.8381185E+00   4.2800508E+00   2.2101857E+00   6.5938121E-01  -8.5846517E-01  -2.2246959E+00  -3.6036309E+00   2.8499730E+01   4.6955626E+01   5.7599924E+01   6.0656961E+01   4.7064938E+01   1.0272658E+01   6.5525690E+00   1.5844055E+01   2.2366389E+01   2.5984075E+01   2.3255380E+01   1.2498046E+01   2.2971503E+00   6.2407243E+00   1.0298093E+01   1.5628617E+01   2.1456558E+01   2.4806002E+01   1.6467510E-02   9.7066203E-01   2.4187485E+00   4.5702447E+00   7.0316446E+00   8.9337837E+00
   7.6999999E+02   3.8851044E+01   1.9427421E+01  -1.1854344E+01  -2.3903337E+01  -9.5748614E+00   1.4169528E+01   1.5679759E+01   3.0012329E+01   3.5193635E+01   3.2530862E+01   2.8926420E+01   3.6635809E+01   5.3298195E+00   1.1966104E+01   1.1729408E+01   7.9167629E+00   4.6606457E+00   3.7964801E+00   8.6066261E-01   3.3508493E+00   6.1725610E+00   8.9475280E+00   1.0373295E+01   1.1227288E+01  -7.9949852E-01  -2.0051908E+00  -9.7790773E-01   4.3874715E-01  -1.9932413E+00  -1.0417819E+01   2.1151196E-01  -3.7588057E-01  -1.4081259E+00  -3.0962561E+00  -5.6060531E+00  -9.6694883E+00   1.0701243E-01  -1.4367164E-01  -3.5364702E-01  -1.5509518E-01   4.2101812E-01   8.1702703E-01   7.6597596E-02   1.4566035E-01   1.6133571E-01   1.0303501E-01  -4.0644549E-02  -3.0740984E-01  -1.9798144E+01  -1.7161651E+01  -2.1575932E+01  -2.7917897E+01  -3.1291322E+01  -3.3916699E+01  -1.4747798E+01  -2.0488676E+01  -2.2284675E+01  -2.2859647E+01  -2.3394269E+01  -2.5666274E+01   7.1076040E-01  -8.9790831E-01  -1.7414019E+00  -3.4904070E+00  -5.6707205E+00  -7.9308242E+00   4.2924803E+00   2.2240793E+00   6.4457685E-01  -9.3987543E-01  -2.3892159E+00  -3.8356970E+00   2.8202845E+01   4.6374456E+01   5.6753965E+01   5.9733744E+01   4.6352500E+01   9.5111557E+00   6.4171303E+00   1.5536945E+01   2.1866090E+01   2.5254703E+01   2.2360563E+01   1.1597393E+01   2.2804818E+00   6.1883883E+00   1.0192925E+01   1.5435591E+01   2.1205033E+01   2.4520189E+01   1.1847820E-02   9.5239809E-01   2.3793826E+00   4.4880975E+00   6.8825662E+00   8.7096807E+00
   7.7499999E+02   3.7599832E+01   1.8948671E+01  -1.1901179E+01  -2.4219768E+01  -1.0024919E+01   1.3240589E+01   1.4851559E+01   2.8219444E+01   3.2851095E+01   3.0146149E+01   2.7077528E+01   3.5226759E+01   5.1519001E+00   1.1610631E+01   1.1425668E+01   7.6266133E+00   4.3578210E+00   3.5080086E+00   8.2714183E-01   3.1930749E+00   5.8432608E+00   8.3995112E+00   9.6590394E+00   1.0458232E+01  -8.3636224E-01  -2.0042194E+00  -9.4971690E-01   4.9767247E-01  -1.9569496E+00  -1.0388076E+01   1.9397996E-01  -4.0145227E-01  -1.4287328E+00  -3.0915763E+00  -5.5660691E+00  -9.6010162E+00   1.0299936E-01  -1.5120723E-01  -3.6101205E-01  -1.5664402E-01   4.2480621E-01   8.2017927E-01   7.4979538E-02   1.4115514E-01   1.5347685E-01   9.2197579E-02  -5.2163355E-02  -3.2433794E-01  -2.0118050E+01  -1.7744449E+01  -2.1943875E+01  -2.7927831E+01  -3.1282518E+01  -3.4241126E+01  -1.4777522E+01  -2.0785357E+01  -2.2883844E+01  -2.3713761E+01  -2.4297234E+01  -2.6525421E+01   7.0865037E-01  -9.7707069E-01  -1.8801012E+00  -3.6302478E+00  -5.7691951E+00  -8.0108695E+00   4.3039411E+00   2.2386197E+00   6.3228696E-01  -1.0151061E+00  -2.5417892E+00  -4.0517318E+00   2.7948755E+01   4.5862472E+01   5.5987907E+01   5.8931423E+01   4.5773524E+01   8.8567055E+00   6.2795346E+00   1.5242121E+01   2.1406913E+01   2.4594666E+01   2.1559003E+01   1.0790555E+01   2.2590962E+00   6.1398895E+00   1.0094681E+01   1.5256030E+01   2.0979640E+01   2.4271176E+01   8.8383585E-03   9.3347668E-01   2.3403614E+00   4.4104053E+00   6.7446764E+00   8.5057721E+00
