~V
VERS. 2.0 : CWLS LOG ASCII STANDARD -VERSION 2.0
WRAP. NO : ONE LINE PER DEPTH STEP
~W
STRT.FT 0.0000 :START DEPTH                       
STOP.FT 1400.0000 :STOP DEPTH                     
STEP.FT 5.0000 :STEP                              
NULL. -999.25 :NULL VALUE
FLD.  :FIELD
PROV.  :PROVINCE
COMP.  :COMPANY
DATE.  :DATE
LOC.  :LOCATION
SRVC.  :SERVICE COMPANY
UWI.  :UNIQUE WELL ID
WELL. Well1 :WELL
~C
DEPTH.FT  :DEPTH
USDP-83ft-2kHz.deg :                              
USDP-83ft-6kHz.deg :                              
USDP-83ft-12kHz.deg :                             
USDP-83ft-24kHz.deg :                             
USDP-83ft-48kHz.deg :                             
USDP-83ft-96kHz.deg :                             
USDP-43ft-2kHz.deg :                              
USDP-43ft-6kHz.deg :                              
USDP-43ft-12kHz.deg :                             
USDP-43ft-24kHz.deg :                             
USDP-43ft-48kHz.deg :                             
USDP-43ft-96kHz.deg :                             
USDA-83ft-2kHz.dB :                               
USDA-83ft-6kHz.dB :                               
USDA-83ft-12kHz.dB :                              
USDA-83ft-24kHz.dB :                              
USDA-83ft-48kHz.dB :                              
USDA-83ft-96kHz.dB :                              
USDA-43ft-2kHz.dB :                               
USDA-43ft-6kHz.dB :                               
USDA-43ft-12kHz.dB :                              
USDA-43ft-24kHz.dB :                              
USDA-43ft-48kHz.dB :                              
USDA-43ft-96kHz.dB :                              
UADP-83ft-2kHz.deg :                              
UADP-83ft-6kHz.deg :                              
UADP-83ft-12kHz.deg :                             
UADP-83ft-24kHz.deg :                             
UADP-83ft-48kHz.deg :                             
UADP-83ft-96kHz.deg :                             
UADP-43ft-2kHz.deg :                              
UADP-43ft-6kHz.deg :                              
UADP-43ft-12kHz.deg :                             
UADP-43ft-24kHz.deg :                             
UADP-43ft-48kHz.deg :                             
UADP-43ft-96kHz.deg :                             
UADA-83ft-2kHz.dB :                               
UADA-83ft-6kHz.dB :                               
UADA-83ft-12kHz.dB :                              
UADA-83ft-24kHz.dB :                              
UADA-83ft-48kHz.dB :                              
UADA-83ft-96kHz.dB :                              
UADA-43ft-2kHz.dB :                               
UADA-43ft-6kHz.dB :                               
UADA-43ft-12kHz.dB :                              
UADA-43ft-24kHz.dB :                              
UADA-43ft-48kHz.dB :                              
UADA-43ft-96kHz.dB :                              
UHRP-83ft-2kHz.deg :                              
UHRP-83ft-6kHz.deg :                              
UHRP-83ft-12kHz.deg :                             
UHRP-83ft-24kHz.deg :                             
UHRP-83ft-48kHz.deg :                             
UHRP-83ft-96kHz.deg :                             
UHRP-43ft-2kHz.deg :                              
UHRP-43ft-6kHz.deg :                              
UHRP-43ft-12kHz.deg :                             
UHRP-43ft-24kHz.deg :                             
UHRP-43ft-48kHz.deg :                             
UHRP-43ft-96kHz.deg :                             
UHRA-83ft-2kHz.dB :                               
UHRA-83ft-6kHz.dB :                               
UHRA-83ft-12kHz.dB :                              
UHRA-83ft-24kHz.dB :                              
UHRA-83ft-48kHz.dB :                              
UHRA-83ft-96kHz.dB :                              
UHRA-43ft-2kHz.dB :                               
UHRA-43ft-6kHz.dB :                               
UHRA-43ft-12kHz.dB :                              
UHRA-43ft-24kHz.dB :                              
UHRA-43ft-48kHz.dB :                              
UHRA-43ft-96kHz.dB :                              
UHAP-83ft-2kHz.deg :                              
UHAP-83ft-6kHz.deg :                              
UHAP-83ft-12kHz.deg :                             
UHAP-83ft-24kHz.deg :                             
UHAP-83ft-48kHz.deg :                             
UHAP-83ft-96kHz.deg :                             
UHAP-43ft-2kHz.deg :                              
UHAP-43ft-6kHz.deg :                              
UHAP-43ft-12kHz.deg :                             
UHAP-43ft-24kHz.deg :                             
UHAP-43ft-48kHz.deg :                             
UHAP-43ft-96kHz.deg :                             
UHAA-83ft-2kHz.dB :                               
UHAA-83ft-6kHz.dB :                               
UHAA-83ft-12kHz.dB :                              
UHAA-83ft-24kHz.dB :                              
UHAA-83ft-48kHz.dB :                              
UHAA-83ft-96kHz.dB :                              
UHAA-43ft-2kHz.dB :                               
UHAA-43ft-6kHz.dB :                               
UHAA-43ft-12kHz.dB :                              
UHAA-43ft-24kHz.dB :                              
UHAA-43ft-48kHz.dB :                              
UHAA-43ft-96kHz.dB :                              
~A
# ...
   8.9999999E+01  -4.3513243E-02  -4.7893077E-03   6.7461942E-03  -1.6753994E-03  -2.6374525E-04  -7.6361855E-06  -2.7897118E-03   6.3139064E-04   5.4182825E-06   3.6459088E-06  -1.0198707E-06  -1.5974812E-06   5.3148851E-03  -3.9980004E-03   6.1017047E-04  -1.0700517E-05  -3.6245369E-05  -1.9313972E-05   6.8050781E-05  -1.1066128E-04   2.9912674E-05  -1.5428356E-06   3.0635815E-07  -1.1106383E-07   7.2525173E+00   1.0351908E+01   8.4260094E+00   2.6649568E+00  -4.7311247E-01  -2.9987082E-01   3.2765987E+00   6.4222706E+00   8.8958535E+00   1.0389868E+01   7.9309422E+00   2.1296252E+00   8.0130518E-01   2.0152832E+00   3.0797378E+00   3.5271025E+00   3.2434842E+00   3.0406712E+00   2.3121169E-01   6.6039181E-01   1.2165526E+00   2.1217571E+00   3.1706398E+00   3.5174565E+00  -3.4844598E+01  -3.4126364E+01  -3.3006920E+01  -3.6083751E+01  -4.0046621E+01  -4.1373827E+01  -2.6225706E+01  -3.3557876E+01  -3.4719312E+01  -3.3745909E+01  -3.3189256E+01  -3.6572402E+01  -1.6813025E+00  -5.7020142E+00  -7.7257158E+00  -9.7177628E+00  -1.2400691E+01  -1.5316127E+01   2.6824529E+00  -9.4067682E-01  -3.4931786E+00  -5.8940592E+00  -7.9015223E+00  -9.9641868E+00   3.8002366E+01   6.8132686E+01   9.7119499E+01   1.3826696E+02  -1.6436925E+02  -8.7160475E+01   1.4908761E+01   3.2707259E+01   4.8782323E+01   7.0543724E+01   1.0079774E+02   1.4332090E+02   2.5957863E+00   7.0077850E+00   1.1258293E+01   1.7336519E+01   2.5980533E+01   3.8446477E+01   2.5130216E-01   2.0908305E+00   4.2188612E+00   7.3355435E+00   1.1779687E+01   1.8091954E+01
   9.4999999E+01  -4.9769132E-02  -1.8454231E-02   1.3727738E-02  -1.9215164E-03  -1.4091593E-04  -3.5815708E-05  -3.5920864E-03   6.2488573E-04   1.2228290E-04  -5.0856532E-06  -1.5760503E-06  -1.0495398E-06   8.2470870E-03  -5.6551768E-03   1.1967336E-05   1.2837040E-04  -1.2899452E-05  -1.1195916E-05   1.7541616E-04  -1.9786369E-04   4.7624763E-05  -3.6950752E-06   2.1078822E-07   2.8592803E-08   7.2716464E+00   1.0356255E+01   8.4218289E+00   2.6647198E+00  -4.7322274E-01  -2.9984680E-01   3.2788608E+00   6.4209373E+00   8.8962306E+00   1.0389818E+01   7.9309441E+00   2.1296236E+00   7.9837332E-01   2.0174454E+00   3.0798275E+00   3.5270253E+00   3.2434616E+00   3.0406630E+00   2.3128051E-01   6.6040570E-01   1.2165057E+00   2.1217639E+00   3.1706401E+00   3.5174561E+00  -3.4936955E+01  -3.4269693E+01  -3.3021902E+01  -3.6060785E+01  -4.0049092E+01  -4.1373741E+01  -2.6254610E+01  -3.3570061E+01  -3.4713725E+01  -3.3745933E+01  -3.3189250E+01  -3.6572399E+01  -1.6558643E+00  -5.7029649E+00  -7.7380904E+00  -9.7169839E+00  -1.2400553E+01  -1.5316129E+01   2.6859378E+00  -9.4277986E-01  -3.4938894E+00  -5.8938495E+00  -7.9015362E+00  -9.9641863E+00   3.8054337E+01   6.8274611E+01   9.7115090E+01   1.3825165E+02  -1.6436750E+02  -8.7160535E+01   1.4942445E+01   3.2721281E+01   4.8773940E+01   7.0544199E+01   1.0079772E+02   1.4332090E+02   2.5653692E+00   7.0129598E+00   1.1268242E+01   1.7335752E+01   2.5980431E+01   3.8446482E+01   2.4423156E-01   2.0946474E+00   4.2193201E+00   7.3353526E+00   1.1779698E+01   1.8091954E+01
   9.9999999E+01  -5.2922770E-02  -4.3788750E-02   2.1386093E-02  -2.2536070E-03  -1.6226716E-04  -1.0263282E-04  -4.2183167E-03   3.8187928E-04   5.5992090E-04   8.9025650E-06  -6.3614455E-06  -9.2992908E-06   1.2491090E-02  -6.8993266E-03  -1.5368262E-03   4.9004691E-04  -2.2174578E-05  -9.4007538E-06   3.3357723E-04  -3.4777707E-04   6.0152335E-05   7.5745823E-07   4.5898437E-06  -2.1041059E-07   7.2924607E+00   1.0370819E+01   8.4156803E+00   2.6646593E+00  -4.7317561E-01  -2.9978870E-01   3.2827358E+00   6.4191080E+00   8.8962944E+00   1.0389746E+01   7.9309520E+00   2.1296318E+00   7.9322640E-01   2.0202884E+00   3.0803082E+00   3.5268430E+00   3.2434682E+00   3.0406610E+00   2.3110337E-01   6.6064693E-01   1.2163906E+00   2.1217758E+00   3.1706355E+00   3.5174564E+00  -3.5032872E+01  -3.4457737E+01  -3.3077422E+01  -3.6022076E+01  -4.0052242E+01  -4.1373588E+01  -2.6276668E+01  -3.3590045E+01  -3.4709399E+01  -3.3744667E+01  -3.3189382E+01  -3.6572401E+01  -1.6225963E+00  -5.6986527E+00  -7.7543955E+00  -9.7181340E+00  -1.2399915E+01  -1.5316159E+01   2.6904079E+00  -9.4441742E-01  -3.4953101E+00  -5.8935514E+00  -7.9015580E+00  -9.9641854E+00   3.8078401E+01   6.8462966E+01   9.7136981E+01   1.3822537E+02  -1.6436528E+02  -8.7160655E+01   1.4958416E+01   3.2749335E+01   4.8764981E+01   7.0543664E+01   1.0079779E+02   1.4332090E+02   2.5296557E+00   7.0129828E+00   1.1282178E+01   1.7336007E+01   2.5980004E+01   3.8446506E+01   2.3545144E-01   2.0981458E+00   4.2207062E+00   7.3350157E+00   1.1779719E+01   1.8091953E+01
   1.0500000E+02  -5.2343298E-02  -8.2762810E-02   2.6148567E-02   3.1296736E-04  -2.8213184E-04  -1.0921720E-04  -5.2057598E-03  -5.6331937E-04   1.0227687E-03  -1.1137588E-04  -1.1477787E-05  -1.0318042E-05   1.7996632E-02  -7.0703116E-03  -4.8238690E-03   1.1448885E-03  -5.0668156E-05  -1.9496198E-06   6.2729867E-04  -5.0877028E-04   5.3330817E-05   1.4851281E-06   2.5548343E-06  -8.0099390E-07   7.3068737E+00   1.0404517E+01   8.4073383E+00   2.6627610E+00  -4.7299724E-01  -2.9977362E-01   3.2874436E+00   6.4179790E+00   8.8961243E+00   1.0389829E+01   7.9309646E+00   2.1296333E+00   7.8559874E-01   2.0232912E+00   3.0820869E+00   3.5265018E+00   3.2434815E+00   3.0406548E+00   2.3075369E-01   6.6101194E-01   1.2162429E+00   2.1218013E+00   3.1706363E+00   3.5174572E+00  -3.5123933E+01  -3.4697649E+01  -3.3209104E+01  -3.5968502E+01  -4.0051966E+01  -4.1373812E+01  -2.6304280E+01  -3.3612674E+01  -3.4706182E+01  -3.3742541E+01  -3.3189645E+01  -3.6572397E+01  -1.5784319E+00  -5.6845961E+00  -7.7731767E+00  -9.7246423E+00  -1.2398189E+01  -1.5316268E+01   2.6955532E+00  -9.4602741E-01  -3.4970598E+00  -5.8932403E+00  -7.9015786E+00  -9.9641859E+00   3.8061815E+01   6.8706565E+01   9.7219488E+01   1.3818581E+02  -1.6436552E+02  -8.7160474E+01   1.4968432E+01   3.2784290E+01   4.8756203E+01   7.0542409E+01   1.0079797E+02   1.4332089E+02   2.4868164E+00   7.0025419E+00   1.1300027E+01   1.7339858E+01   2.5978801E+01   3.8446587E+01   2.2602774E-01   2.1014120E+00   4.2225822E+00   7.3346282E+00   1.1779742E+01   1.8091953E+01
   1.1000000E+02  -4.3633135E-02  -1.3844638E-01   1.8422161E-02   9.1864855E-03  -1.0153328E-03  -4.5226106E-05  -6.2186248E-03  -2.0909329E-03   1.7376019E-03  -2.2601752E-04  -6.2116900E-06  -7.6169790E-06   2.5160617E-02  -4.7370236E-03  -1.0294087E-02   1.8229669E-03  -6.8480385E-05   7.6746668E-06   9.9137678E-04  -6.9258743E-04  -4.7678570E-06   1.5662785E-05   1.3406556E-06  -5.6541076E-07   7.3172724E+00   1.0462327E+01   8.4027487E+00   2.6571223E+00  -4.7236010E-01  -2.9984249E-01   3.2912825E+00   6.4175785E+00   8.8953207E+00   1.0390034E+01   7.9309588E+00   2.1296292E+00   7.7496430E-01   2.0253022E+00   3.0858314E+00   3.5262084E+00   3.2434635E+00   3.0406462E+00   2.3021580E-01   6.6153272E-01   1.2160629E+00   2.1218361E+00   3.1706354E+00   3.5174565E+00  -3.5200249E+01  -3.4987108E+01  -3.3454693E+01  -3.5920900E+01  -4.0036288E+01  -4.1375766E+01  -2.6337609E+01  -3.3645737E+01  -3.4706516E+01  -3.3737675E+01  -3.3190240E+01  -3.6572381E+01  -1.5207391E+00  -5.6556546E+00  -7.7897511E+00  -9.7411177E+00  -1.2395433E+01  -1.5316371E+01   2.7028027E+00  -9.4740279E-01  -3.4997932E+00  -5.8929670E+00  -7.9015730E+00  -9.9641837E+00   3.7987856E+01   6.8989388E+01   9.7395191E+01   1.3814575E+02  -1.6437607E+02  -8.7159042E+01   1.4975669E+01   3.2836498E+01   4.8749086E+01   7.0538662E+01   1.0079843E+02   1.4332088E+02   2.4385449E+00   6.9764078E+00   1.1318098E+01   1.7350493E+01   2.5976902E+01   3.8446654E+01   2.1454056E-01   2.1041970E+00   4.2258879E+00   7.3341359E+00   1.1779756E+01   1.8091952E+01
   1.1500000E+02  -2.2718664E-02  -2.1638485E-01  -1.8447668E-02   2.9747274E-02  -2.9769756E-03  -4.7057909E-05  -6.9882394E-03  -4.8015825E-03   2.7007480E-03  -2.9771980E-04   8.5837135E-06  -1.4917416E-05   3.5169159E-02   2.2768069E-03  -1.8307792E-02   1.6195861E-03   1.5795169E-04   1.9927584E-05   1.4998927E-03  -8.7908284E-04  -1.7335401E-04   5.9854046E-05   1.5712654E-06  -5.7355424E-08   7.3139392E+00   1.0560460E+01   8.4147011E+00   2.6438150E+00  -4.7090494E-01  -2.9983292E-01   3.2959614E+00   6.4184199E+00   8.8932051E+00   1.0390541E+01   7.9309279E+00   2.1296378E+00   7.5962963E-01   2.0236560E+00   3.0930833E+00   3.5264632E+00   3.2431896E+00   3.0406352E+00   2.2938472E-01   6.6232100E-01   1.2158771E+00   2.1218628E+00   3.1706284E+00   3.5174563E+00  -3.5257681E+01  -3.5323915E+01  -3.3823996E+01  -3.5911607E+01  -3.9994804E+01  -4.1380316E+01  -2.6366412E+01  -3.3697228E+01  -3.4717140E+01  -3.3727845E+01  -3.3191296E+01  -3.6572330E+01  -1.4465937E+00  -5.6099461E+00  -7.7992183E+00  -9.7694165E+00  -1.2393051E+01  -1.5316113E+01   2.7133654E+00  -9.4742200E-01  -3.5040114E+00  -5.8931475E+00  -7.9014315E+00  -9.9641864E+00   3.7850867E+01   6.9273213E+01   9.7675146E+01   1.3812861E+02  -1.6440404E+02  -8.7155876E+01   1.4958213E+01   3.2919185E+01   4.8751140E+01   7.0529329E+01   1.0079941E+02   1.4332084E+02   2.3888866E+00   6.9326570E+00   1.1330376E+01   1.7369718E+01   2.5975169E+01   3.8446484E+01   1.9972702E-01   2.1046556E+00   4.2317207E+00   7.3338057E+00   1.1779677E+01   1.8091953E+01
