~V
VERS. 2.0 : CWLS LOG ASCII STANDARD -VERSION 2.0
WRAP. NO : ONE LINE PER DEPTH STEP
~W
STRT.FT 0.0000 :START DEPTH                       
STOP.FT 1400.0000 :STOP DEPTH                     
STEP.FT 5.0000 :STEP                              
NULL. -999.25 :NULL VALUE
FLD.  :FIELD
PROV.  :PROVINCE
COMP.  :COMPANY
DATE.  :DATE
LOC.  :LOCATION
SRVC.  :SERVICE COMPANY
UWI.  :UNIQUE WELL ID
WELL. Well1 :WELL
~C
DEPTH.FT  :DEPTH
USDP-83ft-2kHz.deg :                              
USDP-83ft-6kHz.deg :                              
USDP-83ft-12kHz.deg :                             
USDP-83ft-24kHz.deg :                             
USDP-83ft-48kHz.deg :                             
USDP-83ft-96kHz.deg :                             
USDP-43ft-2kHz.deg :                              
USDP-43ft-6kHz.deg :                              
USDP-43ft-12kHz.deg :                             
USDP-43ft-24kHz.deg :                             
USDP-43ft-48kHz.deg :                             
USDP-43ft-96kHz.deg :                             
USDA-83ft-2kHz.dB :                               
USDA-83ft-6kHz.dB :                               
USDA-83ft-12kHz.dB :                              
USDA-83ft-24kHz.dB :                              
USDA-83ft-48kHz.dB :                              
USDA-83ft-96kHz.dB :                              
USDA-43ft-2kHz.dB :                               
USDA-43ft-6kHz.dB :                               
USDA-43ft-12kHz.dB :                              
USDA-43ft-24kHz.dB :                              
USDA-43ft-48kHz.dB :                              
USDA-43ft-96kHz.dB :                              
UADP-83ft-2kHz.deg :                              
UADP-83ft-6kHz.deg :                              
UADP-83ft-12kHz.deg :                             
UADP-83ft-24kHz.deg :                             
UADP-83ft-48kHz.deg :                             
UADP-83ft-96kHz.deg :                             
UADP-43ft-2kHz.deg :                              
UADP-43ft-6kHz.deg :                              
UADP-43ft-12kHz.deg :                             
UADP-43ft-24kHz.deg :                             
UADP-43ft-48kHz.deg :                             
UADP-43ft-96kHz.deg :                             
UADA-83ft-2kHz.dB :                               
UADA-83ft-6kHz.dB :                               
UADA-83ft-12kHz.dB :                              
UADA-83ft-24kHz.dB :                              
UADA-83ft-48kHz.dB :                              
UADA-83ft-96kHz.dB :                              
UADA-43ft-2kHz.dB :                               
UADA-43ft-6kHz.dB :                               
UADA-43ft-12kHz.dB :                              
UADA-43ft-24kHz.dB :                              
UADA-43ft-48kHz.dB :                              
UADA-43ft-96kHz.dB :                              
UHRP-83ft-2kHz.deg :                              
UHRP-83ft-6kHz.deg :                              
UHRP-83ft-12kHz.deg :                             
UHRP-83ft-24kHz.deg :                             
UHRP-83ft-48kHz.deg :                             
UHRP-83ft-96kHz.deg :                             
UHRP-43ft-2kHz.deg :                              
UHRP-43ft-6kHz.deg :                              
UHRP-43ft-12kHz.deg :                             
UHRP-43ft-24kHz.deg :                             
UHRP-43ft-48kHz.deg :                             
UHRP-43ft-96kHz.deg :                             
UHRA-83ft-2kHz.dB :                               
UHRA-83ft-6kHz.dB :                               
UHRA-83ft-12kHz.dB :                              
UHRA-83ft-24kHz.dB :                              
UHRA-83ft-48kHz.dB :                              
UHRA-83ft-96kHz.dB :                              
UHRA-43ft-2kHz.dB :                               
UHRA-43ft-6kHz.dB :                               
UHRA-43ft-12kHz.dB :                              
UHRA-43ft-24kHz.dB :                              
UHRA-43ft-48kHz.dB :                              
UHRA-43ft-96kHz.dB :                              
UHAP-83ft-2kHz.deg :                              
UHAP-83ft-6kHz.deg :                              
UHAP-83ft-12kHz.deg :                             
UHAP-83ft-24kHz.deg :                             
UHAP-83ft-48kHz.deg :                             
UHAP-83ft-96kHz.deg :                             
UHAP-43ft-2kHz.deg :                              
UHAP-43ft-6kHz.deg :                              
UHAP-43ft-12kHz.deg :                             
UHAP-43ft-24kHz.deg :                             
UHAP-43ft-48kHz.deg :                             
UHAP-43ft-96kHz.deg :                             
UHAA-83ft-2kHz.dB :                               
UHAA-83ft-6kHz.dB :                               
UHAA-83ft-12kHz.dB :                              
UHAA-83ft-24kHz.dB :                              
UHAA-83ft-48kHz.dB :                              
UHAA-83ft-96kHz.dB :                              
UHAA-43ft-2kHz.dB :                               
UHAA-43ft-6kHz.dB :                               
UHAA-43ft-12kHz.dB :                              
UHAA-43ft-24kHz.dB :                              
UHAA-43ft-48kHz.dB :                              
UHAA-43ft-96kHz.dB :                              
~A
   0.0000000E+00   6.0957196E-04   5.3163499E-05  -2.8046044E-05  -2.2963904E-05   4.7762981E-06  -4.3860639E-07   1.8536302E-15  -2.6654498E-07   0.0000000E+00  -1.8465093E-16   0.0000000E+00  -6.1737637E-08  -6.4299329E-05   1.3115708E-05   8.3359293E-06  -1.6796962E-06  -8.5421284E-07   6.0321381E-08  -1.9286549E-15  -4.7753371E-08   9.6432747E-16   1.9286549E-15  -3.8573099E-15   1.6819289E-09   7.1907957E+00   1.0361541E+01   8.4265251E+00   2.6639045E+00  -4.7337899E-01  -2.9987547E-01   3.2730489E+00   6.4239171E+00   8.8953215E+00   1.0389922E+01   7.9309405E+00   2.1296232E+00   8.0260775E-01   2.0131503E+00   3.0802172E+00   3.5271152E+00   3.2434469E+00   3.0406522E+00   2.3052796E-01   6.6060272E-01   1.2165401E+00   2.1217596E+00   3.1706400E+00   3.5174561E+00  -3.4212837E+01  -3.3893982E+01  -3.3092317E+01  -3.6093794E+01  -4.0045206E+01  -4.1373854E+01  -2.6121860E+01  -3.3558334E+01  -3.4729168E+01  -3.3744861E+01  -3.3189301E+01  -3.6572401E+01  -1.7367495E+00  -5.6642687E+00  -7.7099385E+00  -9.7213764E+00  -1.2400507E+01  -1.5316132E+01   2.6793800E+00  -9.3511857E-01  -3.4934187E+00  -5.8941673E+00  -7.9015183E+00  -9.9641862E+00   3.7253406E+01   6.7979186E+01   9.7205251E+01   1.3827179E+02  -1.6437022E+02  -8.7160425E+01   1.4732321E+01   3.2721068E+01   4.8793146E+01   7.0542512E+01   1.0079778E+02   1.4332090E+02   2.6652389E+00   6.9623049E+00   1.1249305E+01   1.7339093E+01   2.5980405E+01   3.8446485E+01   2.6057902E-01   2.0825389E+00   4.2197523E+00   7.3355923E+00   1.1779686E+01   1.8091954E+01
   4.9999999E+00   5.0611202E-04   2.4607092E-05  -4.5964030E-06  -1.5842232E-05   1.4164435E-06  -8.3651156E-07   5.1561352E-06  -1.5750054E-07   0.0000000E+00  -1.8465093E-16   0.0000000E+00  -6.1737637E-08  -1.0197822E-04   7.1129190E-06   5.8184598E-06  -3.8454949E-09  -7.3901273E-07  -6.1701953E-09  -9.5592457E-07   2.0203744E-08  -1.9286549E-15   1.9286549E-15  -3.8573099E-15   1.6819289E-09   7.1902817E+00   1.0361537E+01   8.4265214E+00   2.6639042E+00  -4.7337827E-01  -2.9987587E-01   3.2730224E+00   6.4239126E+00   8.8953210E+00   1.0389922E+01   7.9309405E+00   2.1296232E+00   8.0259967E-01   2.0131612E+00   3.0802161E+00   3.5271150E+00   3.2434470E+00   3.0406521E+00   2.3050474E-01   6.6060459E-01   1.2165399E+00   2.1217596E+00   3.1706400E+00   3.5174561E+00  -3.4218359E+01  -3.3892941E+01  -3.3092440E+01  -3.6093789E+01  -4.0045206E+01  -4.1373854E+01  -2.6122725E+01  -3.3558323E+01  -3.4729170E+01  -3.3744861E+01  -3.3189301E+01  -3.6572401E+01  -1.7377534E+00  -5.6641480E+00  -7.7099458E+00  -9.7213760E+00  -1.2400507E+01  -1.5316132E+01   2.6788873E+00  -9.3506888E-01  -3.4934215E+00  -5.8941673E+00  -7.9015183E+00  -9.9641862E+00   3.7258533E+01   6.7978468E+01   9.7205342E+01   1.3827179E+02  -1.6437022E+02  -8.7160425E+01   1.4733232E+01   3.2721173E+01   4.8793140E+01   7.0542512E+01   1.0079778E+02   1.4332090E+02   2.6669273E+00   6.9621364E+00   1.1249314E+01   1.7339093E+01   2.5980405E+01   3.8446485E+01   2.6146114E-01   2.0824663E+00   4.2197565E+00   7.3355923E+00   1.1779686E+01   1.8091954E+01
   9.9999999E+00   4.6271899E-04  -2.7270393E-05  -1.2107944E-05  -8.5147488E-06   1.3856102E-06  -8.3651156E-07   5.5457109E-03  -8.1456618E-04  -2.4996568E-06  -1.8465093E-16   0.0000000E+00  -6.1737637E-08  -1.2144133E-04   7.7726804E-06   2.9579842E-06  -8.0049437E-07  -3.1909349E-07  -6.1701953E-09  -3.5653411E-03  -2.7112387E-05   2.1449183E-06   1.9286549E-15  -3.8573099E-15   1.6819289E-09   7.1902472E+00   1.0361660E+01   8.4265459E+00   2.6638921E+00  -4.7338022E-01  -2.9987587E-01   3.3434987E+00   6.4216863E+00   8.8953259E+00   1.0389922E+01   7.9309405E+00   2.1296232E+00   8.0257443E-01   2.0131709E+00   3.0802227E+00   3.5271168E+00   3.2434466E+00   3.0406521E+00   2.2135833E-01   6.6044896E-01   1.2165444E+00   2.1217596E+00   3.1706400E+00   3.5174561E+00  -3.4223533E+01  -3.3891969E+01  -3.3092558E+01  -3.6093783E+01  -4.0045205E+01  -4.1373854E+01  -2.6214475E+01  -3.3558590E+01  -3.4729160E+01  -3.3744861E+01  -3.3189301E+01  -3.6572401E+01  -1.7386863E+00  -5.6640308E+00  -7.7099538E+00  -9.7213757E+00  -1.2400507E+01  -1.5316132E+01   2.6716514E+00  -9.3484710E-01  -3.4934232E+00  -5.8941673E+00  -7.9015183E+00  -9.9641862E+00   3.7263705E+01   6.7977805E+01   9.7205426E+01   1.3827179E+02  -1.6437022E+02  -8.7160425E+01   1.4681638E+01   3.2721030E+01   4.8793146E+01   7.0542512E+01   1.0079778E+02   1.4332090E+02   2.6685127E+00   6.9619762E+00   1.1249323E+01   1.7339093E+01   2.5980405E+01   3.8446485E+01   2.5788377E-01   2.0825890E+00   4.2197573E+00   7.3355923E+00   1.1779686E+01   1.8091954E+01
   1.5000000E+01   1.9906403E-04  -5.4982483E-06   6.7812834E-05   1.3673506E-05  -8.8853808E-06  -1.5509195E-06  -1.7237390E-03  -3.0385535E-05  -1.9405826E-07  -1.8465093E-16   0.0000000E+00  -6.1737637E-08  -1.8560529E-04  -5.8947013E-06   4.1776985E-07   4.0972906E-06   8.6674094E-07  -3.9277926E-07   2.0463060E-04   3.0783235E-06   5.5488432E-08   1.9286549E-15  -3.8573099E-15   1.6819289E-09   7.1899280E+00   1.0361844E+01   8.4266474E+00   2.6639090E+00  -4.7339224E-01  -2.9987658E-01   3.2707965E+00   6.4238711E+00   8.8953205E+00   1.0389922E+01   7.9309405E+00   2.1296232E+00   8.0261112E-01   2.0131556E+00   3.0802255E+00   3.5271232E+00   3.2434478E+00   3.0406517E+00   2.3074592E-01   6.6061018E-01   1.2165398E+00   2.1217596E+00   3.1706400E+00   3.5174561E+00  -3.4226338E+01  -3.3891317E+01  -3.3092651E+01  -3.6093786E+01  -4.0045206E+01  -4.1373854E+01  -2.6118827E+01  -3.3558286E+01  -3.4729174E+01  -3.3744861E+01  -3.3189301E+01  -3.6572401E+01  -1.7390737E+00  -5.6639868E+00  -7.7099533E+00  -9.7213757E+00  -1.2400507E+01  -1.5316132E+01   2.6780836E+00  -9.3503463E-01  -3.4934235E+00  -5.8941673E+00  -7.9015183E+00  -9.9641862E+00   3.7267458E+01   6.7977278E+01   9.7205490E+01   1.3827178E+02  -1.6437022E+02  -8.7160424E+01   1.4736147E+01   3.2721247E+01   4.8793138E+01   7.0542512E+01   1.0079778E+02   1.4332090E+02   2.6692735E+00   6.9618981E+00   1.1249326E+01   1.7339093E+01   2.5980405E+01   3.8446485E+01   2.6204852E-01   2.0824139E+00   4.2197592E+00   7.3355923E+00   1.1779686E+01   1.8091954E+01
   2.0000000E+01  -1.7865357E-04  -3.6302593E-04  -8.6695821E-05   1.6011390E-05   8.7511256E-06  -1.2751179E-06  -3.6858476E-03  -4.2828951E-03   1.5609920E-04  -2.1495609E-06  -3.1520987E-07  -6.1737637E-08  -1.8084326E-04   1.5001527E-05  -1.6698030E-05  -6.2983403E-06   7.8275137E-08   5.4151179E-08  -1.0837869E-02   2.6393523E-04   1.6147847E-05   2.0859731E-07   4.2157631E-08   1.6819289E-09   7.1887997E+00   1.0361813E+01   8.4265984E+00   2.6639124E+00  -4.7338601E-01  -2.9987622E-01   3.2297427E+00   6.4202511E+00   8.8955907E+00   1.0389915E+01   7.9309402E+00   2.1296232E+00   8.0265073E-01   2.0131688E+00   3.0802149E+00   3.5271201E+00   3.2434474E+00   3.0406519E+00   2.2710710E-01   6.6096761E-01   1.2165425E+00   2.1217592E+00   3.1706400E+00   3.5174561E+00  -3.4241502E+01  -3.3887607E+01  -3.3093099E+01  -3.6093767E+01  -4.0045206E+01  -4.1373854E+01  -2.6217907E+01  -3.3554997E+01  -3.4729267E+01  -3.3744859E+01  -3.3189301E+01  -3.6572401E+01  -1.7405263E+00  -5.6639393E+00  -7.7099237E+00  -9.7213744E+00  -1.2400507E+01  -1.5316132E+01   2.6883406E+00  -9.3503687E-01  -3.4934240E+00  -5.8941673E+00  -7.9015183E+00  -9.9641862E+00   3.7284730E+01   6.7973971E+01   9.7205868E+01   1.3827176E+02  -1.6437023E+02  -8.7160424E+01   1.4751753E+01   3.2722737E+01   4.8793107E+01   7.0542512E+01   1.0079778E+02   1.4332090E+02   2.6720257E+00   6.9616636E+00   1.1249319E+01   1.7339092E+01   2.5980405E+01   3.8446485E+01   2.6653780E-01   2.0823695E+00   4.2197541E+00   7.3355923E+00   1.1779686E+01   1.8091954E+01
   2.5000000E+01  -9.0648063E-05  -8.9455426E-05  -1.4428624E-05  -7.7320273E-06   7.0897107E-07  -3.9790512E-07   4.3075119E-01  -1.0904966E+00   1.8396611E-01  -3.3032979E-03   4.1156177E-04  -5.5016402E-05  -2.6920138E-04   2.6103488E-05  -2.2413494E-07  -1.0535032E-06  -5.2694316E-07  -6.6491574E-08   1.7836060E-01  -1.9266492E-02  -5.5999153E-02   9.0663840E-03  -3.3903939E-04  -2.0566096E-06   7.1889584E+00   1.0361934E+01   8.4265263E+00   2.6638874E+00  -4.7337831E-01  -2.9987660E-01  -1.3630267E+00   7.3606142E+00   8.9757557E+00   1.0364329E+01   7.9309471E+00   2.1296421E+00   8.0271459E-01   2.0131921E+00   3.0802229E+00   3.5271163E+00   3.2434469E+00   3.0406521E+00   1.7610673E-01   4.9586956E-01   1.2729406E+00   2.1123525E+00   3.1713104E+00   3.5174484E+00  -3.4247240E+01  -3.3886142E+01  -3.3093290E+01  -3.6093760E+01  -4.0045203E+01  -4.1373851E+01  -2.8111717E+01  -3.3871858E+01  -3.4406876E+01  -3.3771955E+01  -3.3188706E+01  -3.6572441E+01  -1.7410919E+00  -5.6639338E+00  -7.7099094E+00  -9.7213764E+00  -1.2400507E+01  -1.5316131E+01   3.0043821E+00  -1.1106080E+00  -3.4923577E+00  -5.8910633E+00  -7.9016084E+00  -9.9641830E+00   3.7292941E+01   6.7972627E+01   9.7206042E+01   1.3827177E+02  -1.6437022E+02  -8.7160425E+01   1.4047243E+01   3.2941821E+01   4.8797748E+01   7.0542166E+01   1.0079753E+02   1.4332093E+02   2.6731081E+00   6.9615792E+00   1.1249312E+01   1.7339093E+01   2.5980405E+01   3.8446485E+01   2.5087633E-01   2.0622017E+00   4.2282557E+00   7.3349024E+00   1.1779765E+01   1.8091950E+01
