~V
VERS. 2.0 : CWLS LOG ASCII STANDARD -VERSION 2.0
WRAP. NO : ONE LINE PER DEPTH STEP
~W
STRT.FT 0.0000 :START DEPTH                       
STOP.FT 1400.0000 :STOP DEPTH                     
STEP.FT 5.0000 :STEP                              
NULL. -999.25 :NULL VALUE
FLD.  :FIELD
PROV.  :PROVINCE
COMP.  :COMPANY
DATE.  :DATE
LOC.  :LOCATION
SRVC.  :SERVICE COMPANY
UWI.  :UNIQUE WELL ID
WELL. Well1 :WELL
~C
DEPTH.FT  :DEPTH
USDP-83ft-2kHz.deg :                              
USDP-83ft-6kHz.deg :                              
USDP-83ft-12kHz.deg :                             
USDP-83ft-24kHz.deg :                             
USDP-83ft-48kHz.deg :                             
USDP-83ft-96kHz.deg :                             
USDP-43ft-2kHz.deg :                              
USDP-43ft-6kHz.deg :                              
USDP-43ft-12kHz.deg :                             
USDP-43ft-24kHz.deg :                             
USDP-43ft-48kHz.deg :                             
USDP-43ft-96kHz.deg :                             
USDA-83ft-2kHz.dB :                               
USDA-83ft-6kHz.dB :                               
USDA-83ft-12kHz.dB :                              
USDA-83ft-24kHz.dB :                              
USDA-83ft-48kHz.dB :                              
USDA-83ft-96kHz.dB :                              
USDA-43ft-2kHz.dB :                               
USDA-43ft-6kHz.dB :                               
USDA-43ft-12kHz.dB :                              
USDA-43ft-24kHz.dB :                              
USDA-43ft-48kHz.dB :                              
USDA-43ft-96kHz.dB :                              
UADP-83ft-2kHz.deg :                              
UADP-83ft-6kHz.deg :                              
UADP-83ft-12kHz.deg :                             
UADP-83ft-24kHz.deg :                             
UADP-83ft-48kHz.deg :                             
UADP-83ft-96kHz.deg :                             
UADP-43ft-2kHz.deg :                              
UADP-43ft-6kHz.deg :                              
UADP-43ft-12kHz.deg :                             
UADP-43ft-24kHz.deg :                             
UADP-43ft-48kHz.deg :                             
UADP-43ft-96kHz.deg :                             
UADA-83ft-2kHz.dB :                               
UADA-83ft-6kHz.dB :                               
UADA-83ft-12kHz.dB :                              
UADA-83ft-24kHz.dB :                              
UADA-83ft-48kHz.dB :                              
UADA-83ft-96kHz.dB :                              
UADA-43ft-2kHz.dB :                               
UADA-43ft-6kHz.dB :                               
UADA-43ft-12kHz.dB :                              
UADA-43ft-24kHz.dB :                              
UADA-43ft-48kHz.dB :                              
UADA-43ft-96kHz.dB :                              
UHRP-83ft-2kHz.deg :                              
UHRP-83ft-6kHz.deg :                              
UHRP-83ft-12kHz.deg :                             
UHRP-83ft-24kHz.deg :                             
UHRP-83ft-48kHz.deg :                             
UHRP-83ft-96kHz.deg :                             
UHRP-43ft-2kHz.deg :                              
UHRP-43ft-6kHz.deg :                              
UHRP-43ft-12kHz.deg :                             
UHRP-43ft-24kHz.deg :                             
UHRP-43ft-48kHz.deg :                             
UHRP-43ft-96kHz.deg :                             
UHRA-83ft-2kHz.dB :                               
UHRA-83ft-6kHz.dB :                               
UHRA-83ft-12kHz.dB :                              
UHRA-83ft-24kHz.dB :                              
UHRA-83ft-48kHz.dB :                              
UHRA-83ft-96kHz.dB :                              
UHRA-43ft-2kHz.dB :                               
UHRA-43ft-6kHz.dB :                               
UHRA-43ft-12kHz.dB :                              
UHRA-43ft-24kHz.dB :                              
UHRA-43ft-48kHz.dB :                              
UHRA-43ft-96kHz.dB :                              
UHAP-83ft-2kHz.deg :                              
UHAP-83ft-6kHz.deg :                              
UHAP-83ft-12kHz.deg :                             
UHAP-83ft-24kHz.deg :                             
UHAP-83ft-48kHz.deg :                             
UHAP-83ft-96kHz.deg :                             
UHAP-43ft-2kHz.deg :                              
UHAP-43ft-6kHz.deg :                              
UHAP-43ft-12kHz.deg :                             
UHAP-43ft-24kHz.deg :                             
UHAP-43ft-48kHz.deg :                             
UHAP-43ft-96kHz.deg :                             
UHAA-83ft-2kHz.dB :                               
UHAA-83ft-6kHz.dB :                               
UHAA-83ft-12kHz.dB :                              
UHAA-83ft-24kHz.dB :                              
UHAA-83ft-48kHz.dB :                              
UHAA-83ft-96kHz.dB :                              
UHAA-43ft-2kHz.dB :                               
UHAA-43ft-6kHz.dB :                               
UHAA-43ft-12kHz.dB :                              
UHAA-43ft-24kHz.dB :                              
UHAA-43ft-48kHz.dB :                              
UHAA-43ft-96kHz.dB :                              
~A
# ...
   1.3800000E+03  -2.7614916E+01  -3.5715028E+01  -3.3988115E+01  -3.9256903E+01  -5.9918716E+01  -1.0013002E+02  -8.9047990E+00  -1.9040261E+01  -2.6269219E+01  -3.2189322E+01  -3.7427490E+01  -4.4168808E+01  -2.4786226E+00  -6.8029835E+00  -8.9392755E+00  -9.9877338E+00  -1.1066812E+01  -1.3176987E+01  -3.9670622E-01  -1.6080061E+00  -3.1696067E+00  -5.2307971E+00  -7.4870936E+00  -9.9313408E+00  -6.6586615E-01  -2.2919455E+00  -4.4666870E+00  -7.9444437E+00  -1.2966094E+01  -1.8552541E+01   8.4151556E-02  -2.1456420E-01  -6.5175786E-01  -1.2125973E+00  -1.3469976E+00   4.6608783E-01   9.7927800E-02   7.3190761E-02  -2.0392508E-02  -2.7915865E-01  -8.5783303E-01  -2.0165991E+00   4.6119121E-02   6.6160317E-02   4.9714138E-02  -4.3715263E-02  -2.8572450E-01  -7.2526683E-01  -2.3254042E+01  -2.0673959E+01  -2.1088945E+01  -2.4311991E+01  -2.7408320E+01  -2.7877946E+01  -1.3236657E+01  -1.8400095E+01  -2.0356304E+01  -2.2001412E+01  -2.4135708E+01  -2.6492173E+01   4.8464909E-01  -1.9324988E+00  -3.0406144E+00  -4.4220256E+00  -6.3219503E+00  -8.5620013E+00   4.4313715E+00   2.6059297E+00   1.2315359E+00  -1.7893729E-01  -1.6880611E+00  -3.4342134E+00   2.0644688E+01   2.6620208E+01   2.4239629E+01   1.4097267E+01  -1.8049931E+00  -1.7595047E+01   3.6894417E+00   7.4838033E+00   8.8055359E+00   7.6873602E+00   3.2756761E+00  -3.3488216E+00   2.0915447E+00   5.2385952E+00   7.6885223E+00   9.7459006E+00   1.0464865E+01   9.4467164E+00   3.2589189E-02   6.7258068E-01   1.4204744E+00   2.2955515E+00   2.9700406E+00   3.0106718E+00
   1.3850000E+03  -2.8989543E+01  -3.7073787E+01  -3.4785481E+01  -3.9786741E+01  -6.0579640E+01  -1.0083223E+02  -9.3915566E+00  -2.0034892E+01  -2.7512819E+01  -3.3406513E+01  -3.8315001E+01  -4.4476417E+01  -2.6249931E+00  -7.1798683E+00  -9.3938996E+00  -1.0448363E+01  -1.1552933E+01  -1.3749856E+01  -4.2031768E-01  -1.7068239E+00  -3.3647992E+00  -5.5438097E+00  -7.9071431E+00  -1.0444562E+01  -6.2054259E-01  -2.2375149E+00  -4.4162877E+00  -7.8653893E+00  -1.2812564E+01  -1.8362022E+01   9.2495659E-02  -2.0831880E-01  -6.6470181E-01  -1.2791842E+00  -1.5408342E+00  -1.3281227E-02   1.0236632E-01   8.4421178E-02  -7.6438242E-03  -2.6832627E-01  -8.4902802E-01  -2.0126170E+00   4.7063331E-02   6.9789864E-02   5.6426542E-02  -3.2923588E-02  -2.7045673E-01  -7.1130936E-01  -2.3053222E+01  -2.0239651E+01  -2.0587197E+01  -2.3784848E+01  -2.6785545E+01  -2.7121041E+01  -1.3252555E+01  -1.8351727E+01  -2.0219933E+01  -2.1795824E+01  -2.3973412E+01  -2.6556408E+01   4.8711389E-01  -1.8940260E+00  -2.9636501E+00  -4.3116795E+00  -6.1781552E+00  -8.3601394E+00   4.4257298E+00   2.5955964E+00   1.2267058E+00  -1.6456989E-01  -1.6447836E+00  -3.3688492E+00   2.0780207E+01   2.6929018E+01   2.4661708E+01   1.4511707E+01  -1.5183604E+00  -1.7465078E+01   3.7234604E+00   7.5847810E+00   8.9754606E+00   7.9252595E+00   3.5307079E+00  -3.1714314E+00   2.0978093E+00   5.2640308E+00   7.7454564E+00   9.8453462E+00   1.0595875E+01   9.5945868E+00   3.2135445E-02   6.7559882E-01   1.4316285E+00   2.3235898E+00   3.0234794E+00   3.0921266E+00
   1.3900000E+03  -3.0353157E+01  -3.8357332E+01  -3.5447361E+01  -4.0133470E+01  -6.0986813E+01  -1.0115039E+02  -9.8893194E+00  -2.1053379E+01  -2.8783449E+01  -3.4646040E+01  -3.9236524E+01  -4.4908268E+01  -2.7733763E+00  -7.5586674E+00  -9.8434699E+00  -1.0894177E+01  -1.2015530E+01  -1.4286959E+01  -4.4426879E-01  -1.8078289E+00  -3.5644121E+00  -5.8621333E+00  -8.3289655E+00  -1.0952927E+01  -5.8387704E-01  -2.1915101E+00  -4.3739359E+00  -7.8006674E+00  -1.2697496E+01  -1.8264054E+01   9.8161167E-02  -2.0690319E-01  -6.8425969E-01  -1.3571643E+00  -1.7543864E+00  -5.2646028E-01   1.0581014E-01   9.3614787E-02   3.1625523E-03  -2.5806693E-01  -8.3720541E-01  -1.9975441E+00   4.7926269E-02   7.2952996E-02   6.2509464E-02  -2.2936965E-02  -2.5650217E-01  -6.9911049E-01  -2.2842654E+01  -1.9780236E+01  -2.0061441E+01  -2.3245475E+01  -2.6167833E+01  -2.6398159E+01  -1.3270553E+01  -1.8300895E+01  -2.0074704E+01  -2.1577779E+01  -2.3805423E+01  -2.6633579E+01   4.8817243E-01  -1.8541890E+00  -2.8824889E+00  -4.1949188E+00  -6.0267939E+00  -8.1501011E+00   4.4195866E+00   2.5842862E+00   1.2213044E+00  -1.4928337E-01  -1.5986693E+00  -3.2996241E+00   2.0926587E+01   2.7254819E+01   2.5108251E+01   1.4953994E+01  -1.2082717E+00  -1.7319565E+01   3.7634790E+00   7.7000696E+00   9.1675654E+00   8.1953339E+00   3.8270511E+00  -2.9488988E+00   2.1058554E+00   5.2919838E+00   7.8063771E+00   9.9512628E+00   1.0735701E+01   9.7529748E+00   3.1793141E-02   6.7943332E-01   1.4445942E+00   2.3551786E+00   3.0833043E+00   3.1834778E+00
   1.3950000E+03  -3.1693386E+01  -3.9548909E+01  -3.5955493E+01  -4.0266897E+01  -6.1074882E+01  -1.0093309E+02  -1.0394740E+01  -2.2084687E+01  -3.0061930E+01  -3.5878431E+01  -4.0149422E+01  -4.5402677E+01  -2.9231215E+00  -7.9368235E+00  -1.0284837E+01  -1.1321941E+01  -1.2450008E+01  -1.4775345E+01  -4.6866151E-01  -1.9108581E+00  -3.7675494E+00  -6.1835150E+00  -8.7482394E+00  -1.1448616E+01  -5.6537048E-01  -2.1823938E+00  -4.3938440E+00  -7.8498984E+00  -1.2807142E+01  -1.8607696E+01   1.0541805E-01  -2.0326858E-01  -7.0107301E-01  -1.4313047E+00  -1.9647273E+00  -1.0452609E+00   1.0821431E-01   1.0057789E-01   1.1627774E-02  -2.4805533E-01  -8.1627151E-01  -1.9425777E+00   4.8864129E-02   7.6440339E-02   6.9059392E-02  -1.2128862E-02  -2.4082591E-01  -6.8325251E-01  -2.2623044E+01  -1.9306542E+01  -1.9528456E+01  -2.2714780E+01  -2.5589407E+01  -2.5793242E+01  -1.3288947E+01  -1.8244843E+01  -1.9918470E+01  -2.1344588E+01  -2.3625939E+01  -2.6711944E+01   4.8991681E-01  -1.8115968E+00  -2.7966541E+00  -4.0719863E+00  -5.8672653E+00  -7.9295973E+00   4.4128193E+00   2.5722835E+00   1.2157637E+00  -1.3270498E-01  -1.5493351E+00  -3.2257733E+00   2.1080091E+01   2.7596687E+01   2.5578116E+01   1.5416670E+01  -8.9420466E-01  -1.7190467E+01   3.8068575E+00   7.8250115E+00   9.3769738E+00   8.4910425E+00   4.1559947E+00  -2.6895973E+00   2.1138191E+00   5.3209159E+00   7.8700690E+00   1.0062896E+01   1.0883093E+01   9.9193934E+00   3.1667937E-02   6.8365507E-01   1.4586541E+00   2.3893369E+00   3.1478806E+00   3.2821849E+00
   1.4000000E+03  -3.3008577E+01  -4.0647274E+01  -3.6323843E+01  -4.0235220E+01  -6.0961271E+01  -1.0045134E+02  -1.0909105E+01  -2.3135263E+01  -3.1360506E+01  -3.7120745E+01  -4.1070587E+01  -4.5969571E+01  -3.0743811E+00  -8.3129438E+00  -1.0714931E+01  -1.1727396E+01  -1.2851172E+01  -1.5212596E+01  -4.9337090E-01  -2.0158151E+00  -3.9746846E+00  -6.5097114E+00  -9.1683296E+00  -1.1935672E+01  -5.5432515E-01  -2.1972271E+00  -4.4496331E+00  -7.9473037E+00  -1.2990401E+01  -1.9067685E+01   1.1437376E-01  -1.9517307E-01  -7.1164057E-01  -1.4982458E+00  -2.1671890E+00  -1.5578013E+00   1.1089492E-01   1.0690909E-01   1.7753892E-02  -2.4147743E-01  -7.9730208E-01  -1.8815855E+00   4.9836451E-02   8.0215906E-02   7.6324681E-02  -1.6184828E-05  -2.2304264E-01  -6.6315065E-01  -2.2391978E+01  -1.8822579E+01  -1.8996936E+01  -2.2201233E+01  -2.5046021E+01  -2.5254078E+01  -1.3306346E+01  -1.8184404E+01  -1.9752187E+01  -2.1095839E+01  -2.3431457E+01  -2.6786187E+01   4.9280291E-01  -1.7654882E+00  -2.7061987E+00  -3.9446911E+00  -5.7042529E+00  -7.7073100E+00   4.4061958E+00   2.5602859E+00   1.2105824E+00  -1.1452717E-01  -1.4963882E+00  -3.1463355E+00   2.1237222E+01   2.7956088E+01   2.6077125E+01   1.5911182E+01  -5.5674054E-01  -1.7047713E+01   3.8520514E+00   7.9602236E+00   9.6055459E+00   8.8151481E+00   4.5203278E+00  -2.3886447E+00   2.1218745E+00   5.3504125E+00   7.9362348E+00   1.0180294E+01   1.1038719E+01   1.0095406E+01   3.1235402E-02   6.8765308E-01   1.4732990E+00   2.4257675E+00   3.2170615E+00   3.3880591E+00
