~V
VERS. 2.0 : CWLS LOG ASCII STANDARD -VERSION 2.0
WRAP. NO : ONE LINE PER DEPTH STEP
~W
STRT.FT 0.0000 :START DEPTH                       
STOP.FT 1400.0000 :STOP DEPTH                     
STEP.FT 5.0000 :STEP                              
NULL. -999.25 :NULL VALUE
FLD.  :FIELD
PROV.  :PROVINCE
COMP.  :COMPANY
DATE.  :DATE
LOC.  :LOCATION
SRVC.  :SERVICE COMPANY
UWI.  :UNIQUE WELL ID
WELL. Well1 :WELL
~C
DEPTH.FT  :DEPTH
USDP-83ft-2kHz.deg :                              
USDP-83ft-6kHz.deg :                              
USDP-83ft-12kHz.deg :                             
USDP-83ft-24kHz.deg :                             
USDP-83ft-48kHz.deg :                             
USDP-83ft-96kHz.deg :                             
USDP-43ft-2kHz.deg :                              
USDP-43ft-6kHz.deg :                              
USDP-43ft-12kHz.deg :                             
USDP-43ft-24kHz.deg :                             
USDP-43ft-48kHz.deg :                             
USDP-43ft-96kHz.deg :                             
USDA-83ft-2kHz.dB :                               
USDA-83ft-6kHz.dB :                               
USDA-83ft-12kHz.dB :                              
USDA-83ft-24kHz.dB :                              
USDA-83ft-48kHz.dB :                              
USDA-83ft-96kHz.dB :                              
USDA-43ft-2kHz.dB :                               
USDA-43ft-6kHz.dB :                               
USDA-43ft-12kHz.dB :                              
USDA-43ft-24kHz.dB :                              
USDA-43ft-48kHz.dB :                              
USDA-43ft-96kHz.dB :                              
UADP-83ft-2kHz.deg :                              
UADP-83ft-6kHz.deg :                              
UADP-83ft-12kHz.deg :                             
UADP-83ft-24kHz.deg :                             
UADP-83ft-48kHz.deg :                             
UADP-83ft-96kHz.deg :                             
UADP-43ft-2kHz.deg :                              
UADP-43ft-6kHz.deg :                              
UADP-43ft-12kHz.deg :                             
UADP-43ft-24kHz.deg :                             
UADP-43ft-48kHz.deg :                             
UADP-43ft-96kHz.deg :                             
UADA-83ft-2kHz.dB :                               
UADA-83ft-6kHz.dB :                               
UADA-83ft-12kHz.dB :                              
UADA-83ft-24kHz.dB :                              
UADA-83ft-48kHz.dB :                              
UADA-83ft-96kHz.dB :                              
UADA-43ft-2kHz.dB :                               
UADA-43ft-6kHz.dB :                               
UADA-43ft-12kHz.dB :                              
UADA-43ft-24kHz.dB :                              
UADA-43ft-48kHz.dB :                              
UADA-43ft-96kHz.dB :                              
UHRP-83ft-2kHz.deg :                              
UHRP-83ft-6kHz.deg :                              
UHRP-83ft-12kHz.deg :                             
UHRP-83ft-24kHz.deg :                             
UHRP-83ft-48kHz.deg :                             
UHRP-83ft-96kHz.deg :                             
UHRP-43ft-2kHz.deg :                              
UHRP-43ft-6kHz.deg :                              
UHRP-43ft-12kHz.deg :                             
UHRP-43ft-24kHz.deg :                             
UHRP-43ft-48kHz.deg :                             
UHRP-43ft-96kHz.deg :                             
UHRA-83ft-2kHz.dB :                               
UHRA-83ft-6kHz.dB :                               
UHRA-83ft-12kHz.dB :                              
UHRA-83ft-24kHz.dB :                              
UHRA-83ft-48kHz.dB :                              
UHRA-83ft-96kHz.dB :                              
UHRA-43ft-2kHz.dB :                               
UHRA-43ft-6kHz.dB :                               
UHRA-43ft-12kHz.dB :                              
UHRA-43ft-24kHz.dB :                              
UHRA-43ft-48kHz.dB :                              
UHRA-43ft-96kHz.dB :                              
UHAP-83ft-2kHz.deg :                              
UHAP-83ft-6kHz.deg :                              
UHAP-83ft-12kHz.deg :                             
UHAP-83ft-24kHz.deg :                             
UHAP-83ft-48kHz.deg :                             
UHAP-83ft-96kHz.deg :                             
UHAP-43ft-2kHz.deg :                              
UHAP-43ft-6kHz.deg :                              
UHAP-43ft-12kHz.deg :                             
UHAP-43ft-24kHz.deg :                             
UHAP-43ft-48kHz.deg :                             
UHAP-43ft-96kHz.deg :                             
UHAA-83ft-2kHz.dB :                               
UHAA-83ft-6kHz.dB :                               
UHAA-83ft-12kHz.dB :                              
UHAA-83ft-24kHz.dB :                              
UHAA-83ft-48kHz.dB :                              
UHAA-83ft-96kHz.dB :                              
UHAA-43ft-2kHz.dB :                               
UHAA-43ft-6kHz.dB :                               
UHAA-43ft-12kHz.dB :                              
UHAA-43ft-24kHz.dB :                              
UHAA-43ft-48kHz.dB :                              
UHAA-43ft-96kHz.dB :                              
~A
# ...
   2.7000000E+02  -2.9843330E+00  -4.1114584E+00  -4.3307173E+00  -4.5438224E+00  -4.5224923E+00  -2.6758092E+00  -5.0218492E-01  -8.7564536E-01  -1.0117185E+00  -9.2046430E-01  -4.6441896E-01   4.7029668E-01  -2.9363914E-01  -7.3674354E-01  -1.0457367E+00  -1.3645665E+00  -1.7855914E+00  -2.3261581E+00  -3.5971491E-02  -1.1394927E-01  -1.9676289E-01  -2.9547588E-01  -3.8803970E-01  -4.2601995E-01  -1.0470493E+00  -2.8927481E+00  -4.7096332E+00  -6.9886738E+00  -8.6804649E+00  -5.8626566E+00  -1.2198186E-01  -4.5443317E-01  -7.8904813E-01  -1.0897098E+00  -9.3459095E-01   1.8647180E-01   6.8502243E-02  -5.4969448E-02  -2.6386609E-01  -6.8077557E-01  -1.4796654E+00  -2.6803325E+00   1.9743325E-02   5.6631820E-03  -3.4214851E-02  -1.2471522E-01  -2.6860565E-01  -3.6885218E-01  -2.4725137E+01  -2.4717147E+01  -2.4850240E+01  -2.6537147E+01  -2.9481766E+01  -3.1810645E+01  -9.7933896E+00  -1.3982448E+01  -1.6718684E+01  -2.0144737E+01  -2.4427445E+01  -2.8799819E+01   5.3804026E-01  -2.2606649E+00  -3.8071790E+00  -5.3775265E+00  -7.2136626E+00  -9.4821890E+00   4.7620430E+00   3.5064862E+00   2.5266948E+00   1.3826422E+00  -4.8799757E-02  -1.8418343E+00   1.3600168E+01   1.3129775E+01   7.6754322E+00  -1.3505900E+00  -1.1138696E+01  -1.7677759E+01   2.2294775E+00   3.3431236E+00   2.9274311E+00   1.1430875E+00  -1.9141832E+00  -4.9674532E+00   1.7807932E+00   3.8566368E+00   4.9919903E+00   5.4477490E+00   4.8856128E+00   3.4047675E+00   1.0429624E-01   5.0482638E-01   8.4840593E-01   1.1292273E+00   1.1722960E+00   7.8959562E-01
   2.7500000E+02  -3.8318329E+00  -5.3347419E+00  -5.6597006E+00  -6.1141566E+00  -6.6101474E+00  -5.0644582E+00  -6.9261167E-01  -1.2269417E+00  -1.4339627E+00  -1.3305949E+00  -7.1381241E-01   6.1854670E-01  -3.6699589E-01  -9.3712588E-01  -1.3303908E+00  -1.7282159E+00  -2.2747710E+00  -3.0928612E+00  -4.7805516E-02  -1.5520548E-01  -2.7100987E-01  -4.1100091E-01  -5.4651456E-01  -6.0876562E-01  -1.0866350E+00  -2.8693921E+00  -4.6977479E+00  -7.0710386E+00  -8.9305663E+00  -6.1450944E+00  -1.2490006E-01  -4.5270855E-01  -7.9138696E-01  -1.0985348E+00  -9.3756351E-01   1.9764929E-01   5.2928811E-02  -6.9634198E-02  -2.7002094E-01  -6.8186626E-01  -1.4942264E+00  -2.7497450E+00   1.8119896E-02   4.4051002E-03  -3.4985896E-02  -1.2632927E-01  -2.7189314E-01  -3.7100916E-01  -2.4059191E+01  -2.4104791E+01  -2.4575049E+01  -2.6904063E+01  -3.0575498E+01  -3.3160646E+01  -9.6841933E+00  -1.3926485E+01  -1.6773669E+01  -2.0336012E+01  -2.4648877E+01  -2.8890226E+01   6.5635253E-01  -2.0408084E+00  -3.5264272E+00  -5.0787113E+00  -6.9844428E+00  -9.4065023E+00   4.7819304E+00   3.5444971E+00   2.5695513E+00   1.4131861E+00  -4.7469817E-02  -1.8590748E+00   1.3442093E+01   1.2945164E+01   7.6095315E+00  -1.1637919E+00  -1.0695584E+01  -1.7327386E+01   2.1661957E+00   3.2766528E+00   2.9505000E+00   1.2936744E+00  -1.7661626E+00  -4.9741706E+00   1.7747019E+00   3.8184497E+00   4.9319259E+00   5.3843320E+00   4.8606378E+00   3.4469777E+00   1.0115222E-01   4.8618690E-01   8.2183415E-01   1.1128119E+00   1.1827018E+00   8.0665046E-01
   2.8000000E+02  -4.7093499E+00  -6.6143948E+00  -7.0814061E+00  -7.8225412E+00  -8.8432068E+00  -7.4386683E+00  -8.8917152E-01  -1.5902975E+00  -1.8707838E+00  -1.7534176E+00  -9.6756548E-01   7.7171964E-01  -4.4283114E-01  -1.1428233E+00  -1.6241497E+00  -2.1107164E+00  -2.8022847E+00  -3.9210169E+00  -6.0023470E-02  -1.9781283E-01  -3.4782697E-01  -5.3060598E-01  -7.1011944E-01  -7.9628554E-01  -1.0804011E+00  -2.8175601E+00  -4.6787179E+00  -7.1473625E+00  -9.1451565E+00  -6.3905615E+00  -1.2360032E-01  -4.5123539E-01  -7.9685940E-01  -1.1110973E+00  -9.4912723E-01   1.8755150E-01   4.4288220E-02  -7.0689928E-02  -2.6221649E-01  -6.7093032E-01  -1.4957869E+00  -2.7926876E+00   1.7467150E-02   4.6110886E-03  -3.4555078E-02  -1.2693027E-01  -2.7392876E-01  -3.7339742E-01  -2.3532948E+01  -2.3693497E+01  -2.4513569E+01  -2.7399240E+01  -3.1538895E+01  -3.4051870E+01  -9.6077885E+00  -1.3901537E+01  -1.6840045E+01  -2.0498487E+01  -2.4805247E+01  -2.8941735E+01   7.5845108E-01  -1.8571698E+00  -3.3029027E+00  -4.8630383E+00  -6.8518044E+00  -9.3933673E+00   4.7973391E+00   3.5726706E+00   2.5992012E+00   1.4301194E+00  -5.3208987E-02  -1.8744133E+00   1.3271976E+01   1.2791214E+01   7.6204813E+00  -8.8046893E-01  -1.0231160E+01  -1.7082599E+01   2.1102114E+00   3.2294300E+00   2.9924256E+00   1.4397897E+00  -1.6481441E+00  -4.9821701E+00   1.7613054E+00   3.7706671E+00   4.8667390E+00   5.3277204E+00   4.8551946E+00   3.4985065E+00   9.7917509E-02   4.6894793E-01   7.9963765E-01   1.1028088E+00   1.1957549E+00   8.2212344E-01
   2.8500000E+02  -5.6256622E+00  -7.9404191E+00  -8.5578912E+00  -9.5990932E+00  -1.1132048E+01  -9.7647021E+00  -1.0854924E+00  -1.9523148E+00  -2.3051061E+00  -2.1723541E+00  -1.2169004E+00   9.2270085E-01  -5.2324301E-01  -1.3580514E+00  -1.9304024E+00  -2.5109913E+00  -3.3572717E+00  -4.7824178E+00  -7.2267162E-02  -2.4043761E-01  -4.2454658E-01  -6.4984867E-01  -8.7269606E-01  -9.8187973E-01  -1.0597558E+00  -2.7607134E+00  -4.6578092E+00  -7.2119938E+00  -9.3306304E+00  -6.6434956E+00  -1.1921221E-01  -4.4810793E-01  -8.0127370E-01  -1.1225057E+00  -9.6163735E-01   1.7084002E-01   3.7710544E-02  -6.7999206E-02  -2.5136029E-01  -6.5733406E-01  -1.4915261E+00  -2.8201721E+00   1.7409695E-02   5.7353889E-03  -3.3171884E-02  -1.2644222E-01  -2.7453432E-01  -3.7464307E-01  -2.3112107E+01  -2.3421564E+01  -2.4571349E+01  -2.7908316E+01  -3.2300882E+01  -3.4593983E+01  -9.5468317E+00  -1.3896498E+01  -1.6915843E+01  -2.0644182E+01  -2.4925197E+01  -2.8983376E+01   8.4595752E-01  -1.7049443E+00  -3.1261549E+00  -4.7088984E+00  -6.7776295E+00  -9.3979431E+00   4.8112690E+00   3.5962059E+00   2.6218548E+00   1.4396135E+00  -6.1771084E-02  -1.8881824E+00   1.3102030E+01   1.2685742E+01   7.7061747E+00  -5.3701616E-01  -9.8020379E+00  -1.6934123E+01   2.0560851E+00   3.1984976E+00   3.0510156E+00   1.5823325E+00  -1.5513221E+00  -4.9821903E+00   1.7437535E+00   3.7205495E+00   4.8058200E+00   5.2862335E+00   4.8695284E+00   3.5531551E+00   9.3571266E-02   4.5190825E-01   7.8018103E-01   1.0972954E+00   1.2097629E+00   8.3644257E-01
   2.9000000E+02  -6.5566316E+00  -9.2905146E+00  -1.0070064E+01  -1.1417546E+01  -1.3435586E+01  -1.2031167E+01  -1.2830469E+00  -2.3193050E+00  -2.7471679E+00  -2.6004950E+00  -1.4757669E+00   1.0624865E+00  -6.0506724E-01  -1.5763080E+00  -2.2417791E+00  -2.9209528E+00  -3.9279989E+00  -5.6565835E+00  -8.4403273E-02  -2.8313629E-01  -5.0182865E-01  -7.7037136E-01  -1.0372194E+00  -1.1701980E+00  -1.0267620E+00  -2.7152630E+00  -4.6545567E+00  -7.2835352E+00  -9.5062089E+00  -6.9244902E+00  -1.1391980E-01  -4.4651457E-01  -8.0739122E-01  -1.1354114E+00  -9.7972812E-01   1.4355607E-01   3.5022307E-02  -6.0932279E-02  -2.3857122E-01  -6.4373062E-01  -1.4853617E+00  -2.8396563E+00   1.7910912E-02   7.3746929E-03  -3.1490779E-02  -1.2558834E-01  -2.7467683E-01  -3.7663377E-01  -2.2771884E+01  -2.3239428E+01  -2.4686652E+01  -2.8373086E+01  -3.2858647E+01  -3.4900553E+01  -9.5098900E+00  -1.3905637E+01  -1.6987388E+01  -2.0760141E+01  -2.5008773E+01  -2.9021132E+01   9.1949273E-01  -1.5792910E+00  -2.9864444E+00  -4.5990203E+00  -6.7365387E+00  -9.3994360E+00   4.8211414E+00   3.6121793E+00   2.6356525E+00   1.4419304E+00  -7.2068216E-02  -1.9008132E+00   1.2938072E+01   1.2627439E+01   7.8524096E+00  -1.6546558E-01  -9.4317888E+00  -1.6854935E+01   2.0122010E+00   3.1818675E+00   3.1168316E+00   1.7129915E+00  -1.4708697E+00  -4.9745770E+00   1.7240461E+00   3.6709250E+00   4.7521145E+00   5.2603427E+00   4.8983467E+00   3.6061471E+00   8.9888444E-02   4.3732132E-01   7.6515748E-01   1.0960901E+00   1.2245711E+00   8.5142922E-01
   2.9500000E+02  -7.5106033E+00  -1.0669588E+01  -1.1612554E+01  -1.3257643E+01  -1.5726055E+01  -1.4265794E+01  -1.4832506E+00  -2.6871865E+00  -3.1891839E+00  -3.0295440E+00  -1.7396214E+00   1.1880992E+00  -6.8947672E-01  -1.8004210E+00  -2.5615999E+00  -3.3427559E+00  -4.5118909E+00  -6.5338613E+00  -9.6995862E-02  -3.2658381E-01  -5.7974406E-01  -8.9129002E-01  -1.2019425E+00  -1.3593543E+00  -9.8572266E-01  -2.6778638E+00  -4.6649669E+00  -7.3621811E+00  -9.6758612E+00  -7.2332454E+00  -1.0925752E-01  -4.4444835E-01  -8.1237952E-01  -1.1474519E+00  -9.9886897E-01   1.1531573E-01   3.5498137E-02  -5.0378502E-02  -2.2395800E-01  -6.2991527E-01  -1.4776481E+00  -2.8532868E+00   1.7993119E-02   8.6009271E-03  -3.0128140E-02  -1.2484836E-01  -2.7494017E-01  -3.7921637E-01  -2.2505781E+01  -2.3124119E+01  -2.4830002E+01  -2.8764353E+01  -3.3229392E+01  -3.5066541E+01  -9.4773500E+00  -1.3929133E+01  -1.7068798E+01  -2.0865983E+01  -2.5073954E+01  -2.9066014E+01   9.8268399E-01  -1.4749239E+00  -2.8762221E+00  -4.5212771E+00  -6.7114094E+00  -9.3885360E+00   4.8314227E+00   3.6268534E+00   2.6460721E+00   1.4403668E+00  -8.2531796E-02  -1.9124800E+00   1.2802451E+01   1.2615093E+01   8.0462427E+00   2.0548238E-01  -9.1307609E+00  -1.6805617E+01   1.9641687E+00   3.1824857E+00   3.2044371E+00   1.8458447E+00  -1.4006185E+00  -4.9567498E+00   1.7030791E+00   3.6239311E+00   4.7075301E+00   5.2491759E+00   4.9354596E+00   3.6545922E+00   8.3771832E-02   4.2103580E-01   7.5141144E-01   1.0983597E+00   1.2399477E+00   8.6696234E-01
