~V
VERS. 2.0 : CWLS LOG ASCII STANDARD -VERSION 2.0
WRAP. NO : ONE LINE PER DEPTH STEP
~W
STRT.FT 0.0000 :START DEPTH                       
STOP.FT 1400.0000 :STOP DEPTH                     
STEP.FT 5.0000 :STEP                              
NULL. -999.25 :NULL VALUE
FLD.  :FIELD
PROV.  :PROVINCE
COMP.  :COMPANY
DATE.  :DATE
LOC.  :LOCATION
SRVC.  :SERVICE COMPANY
UWI.  :UNIQUE WELL ID
WELL. Well1 :WELL
~C
DEPTH.FT  :DEPTH
USDP-83ft-2kHz.deg :                              
USDP-83ft-6kHz.deg :                              
USDP-83ft-12kHz.deg :                             
USDP-83ft-24kHz.deg :                             
USDP-83ft-48kHz.deg :                             
USDP-83ft-96kHz.deg :                             
USDP-43ft-2kHz.deg :                              
USDP-43ft-6kHz.deg :                              
USDP-43ft-12kHz.deg :                             
USDP-43ft-24kHz.deg :                             
USDP-43ft-48kHz.deg :                             
USDP-43ft-96kHz.deg :                             
USDA-83ft-2kHz.dB :                               
USDA-83ft-6kHz.dB :                               
USDA-83ft-12kHz.dB :                              
USDA-83ft-24kHz.dB :                              
USDA-83ft-48kHz.dB :                              
USDA-83ft-96kHz.dB :                              
USDA-43ft-2kHz.dB :                               
USDA-43ft-6kHz.dB :                               
USDA-43ft-12kHz.dB :                              
USDA-43ft-24kHz.dB :                              
USDA-43ft-48kHz.dB :                              
USDA-43ft-96kHz.dB :                              
UADP-83ft-2kHz.deg :                              
UADP-83ft-6kHz.deg :                              
UADP-83ft-12kHz.deg :                             
UADP-83ft-24kHz.deg :                             
UADP-83ft-48kHz.deg :                             
UADP-83ft-96kHz.deg :                             
UADP-43ft-2kHz.deg :                              
UADP-43ft-6kHz.deg :                              
UADP-43ft-12kHz.deg :                             
UADP-43ft-24kHz.deg :                             
UADP-43ft-48kHz.deg :                             
UADP-43ft-96kHz.deg :                             
UADA-83ft-2kHz.dB :                               
UADA-83ft-6kHz.dB :                               
UADA-83ft-12kHz.dB :                              
UADA-83ft-24kHz.dB :                              
UADA-83ft-48kHz.dB :                              
UADA-83ft-96kHz.dB :                              
UADA-43ft-2kHz.dB :                               
UADA-43ft-6kHz.dB :                               
UADA-43ft-12kHz.dB :                              
UADA-43ft-24kHz.dB :                              
UADA-43ft-48kHz.dB :                              
UADA-43ft-96kHz.dB :                              
UHRP-83ft-2kHz.deg :                              
UHRP-83ft-6kHz.deg :                              
UHRP-83ft-12kHz.deg :                             
UHRP-83ft-24kHz.deg :                             
UHRP-83ft-48kHz.deg :                             
UHRP-83ft-96kHz.deg :                             
UHRP-43ft-2kHz.deg :                              
UHRP-43ft-6kHz.deg :                              
UHRP-43ft-12kHz.deg :                             
UHRP-43ft-24kHz.deg :                             
UHRP-43ft-48kHz.deg :                             
UHRP-43ft-96kHz.deg :                             
UHRA-83ft-2kHz.dB :                               
UHRA-83ft-6kHz.dB :                               
UHRA-83ft-12kHz.dB :                              
UHRA-83ft-24kHz.dB :                              
UHRA-83ft-48kHz.dB :                              
UHRA-83ft-96kHz.dB :                              
UHRA-43ft-2kHz.dB :                               
UHRA-43ft-6kHz.dB :                               
UHRA-43ft-12kHz.dB :                              
UHRA-43ft-24kHz.dB :                              
UHRA-43ft-48kHz.dB :                              
UHRA-43ft-96kHz.dB :                              
UHAP-83ft-2kHz.deg :                              
UHAP-83ft-6kHz.deg :                              
UHAP-83ft-12kHz.deg :                             
UHAP-83ft-24kHz.deg :                             
UHAP-83ft-48kHz.deg :                             
UHAP-83ft-96kHz.deg :                             
UHAP-43ft-2kHz.deg :                              
UHAP-43ft-6kHz.deg :                              
UHAP-43ft-12kHz.deg :                             
UHAP-43ft-24kHz.deg :                             
UHAP-43ft-48kHz.deg :                             
UHAP-43ft-96kHz.deg :                             
UHAA-83ft-2kHz.dB :                               
UHAA-83ft-6kHz.dB :                               
UHAA-83ft-12kHz.dB :                              
UHAA-83ft-24kHz.dB :                              
UHAA-83ft-48kHz.dB :                              
UHAA-83ft-96kHz.dB :                              
UHAA-43ft-2kHz.dB :                               
UHAA-43ft-6kHz.dB :                               
UHAA-43ft-12kHz.dB :                              
UHAA-43ft-24kHz.dB :                              
UHAA-43ft-48kHz.dB :                              
UHAA-43ft-96kHz.dB :                              
~A
# ...
   9.2999999E+02  -5.2352952E+00  -3.0408329E+01  -4.8688957E+01  -3.3262897E+01  -2.6744280E+00  -1.1887920E+01  -7.0190310E+00  -2.3772294E+01  -4.6481774E+01  -7.0306248E+01  -6.3102725E+01  -3.5212998E+01   9.4164674E-01   2.1632132E-01  -4.0613030E+00  -1.0040212E+01  -9.3286019E+00  -6.2437442E+00   1.0222888E-01  -1.8095024E-01  -1.9130417E+00  -7.2637441E+00  -1.4991127E+01  -1.7128910E+01  -1.8110405E+00  -1.1989539E+00   3.9840860E-01   1.2011953E+00  -2.8091853E+00  -1.0938756E+01  -2.0161634E-02  -3.6612312E-01  -9.9838069E-01  -2.1707549E+00  -5.2602578E+00  -1.0247864E+01  -1.5997744E-01  -4.8831437E-01  -5.0160670E-01  -1.2118408E-01   3.9861607E-01   6.4226029E-01   2.5150683E-02   5.4532137E-02   6.9665919E-02   9.4600071E-02   1.1711084E-01  -2.4113639E-01  -2.4769332E+01  -2.2790214E+01  -1.8218241E+01  -1.3359775E+01  -1.8240582E+01  -2.7155735E+01  -1.3793969E+01  -2.0189765E+01  -2.1464472E+01  -1.7408624E+01  -1.1412678E+01  -1.4521395E+01   5.0767057E-01  -2.4925803E+00  -4.0368908E+00  -4.6169118E+00  -4.8036777E+00  -6.6003398E+00   4.4653486E+00   2.4480066E+00   6.4203651E-01  -1.0962868E+00  -1.6642092E+00  -1.6467292E+00   2.6085481E+01   4.1859261E+01   5.3055976E+01   6.6162743E+01   7.5503548E+01   3.6246521E+01   6.5900983E+00   1.5570951E+01   2.2584092E+01   2.9678708E+01   3.5012037E+01   2.9207926E+01   2.1195072E+00   5.5724261E+00   8.6756621E+00   1.2923199E+01   1.9886846E+01   2.8997177E+01   5.0261990E-02   9.4928606E-01   2.1963806E+00   4.0844560E+00   6.9142294E+00   1.0720938E+01
   9.3499999E+02  -6.1419427E+00  -3.2042710E+01  -5.0040876E+01  -3.2301720E+01  -2.9631159E-01  -1.0284479E+01  -7.5967386E+00  -2.5191392E+01  -4.8500954E+01  -7.1774509E+01  -6.0963987E+01  -3.0482281E+01   8.8968146E-01  -1.6823833E-02  -4.5275594E+00  -1.0640454E+01  -9.5899474E+00  -6.3224953E+00   8.4146843E-02  -2.8473829E-01  -2.1948372E+00  -7.8753662E+00  -1.5769756E+01  -1.7365563E+01  -2.0086289E+00  -1.2807378E+00   6.2694268E-01   1.5975579E+00  -2.6091405E+00  -1.0807474E+01  -3.8081808E-02  -3.3600827E-01  -9.2081126E-01  -2.1099376E+00  -5.3540358E+00  -1.0225262E+01  -1.7088986E-01  -5.4998729E-01  -5.5840918E-01  -1.2967620E-01   4.2019257E-01   6.5565519E-01   2.1116162E-02   4.6911456E-02   6.8671182E-02   1.0700840E-01   1.2775548E-01  -2.6350699E-01  -2.4955155E+01  -2.2973125E+01  -1.8148776E+01  -1.2850325E+01  -1.7398138E+01  -2.5953078E+01  -1.3726966E+01  -1.9940513E+01  -2.0853064E+01  -1.6122906E+01  -9.7051539E+00  -1.3266225E+01   4.8786491E-01  -2.5538765E+00  -4.1270053E+00  -4.6910944E+00  -4.8265554E+00  -6.5461900E+00   4.4645757E+00   2.4407208E+00   6.3603617E-01  -1.0464149E+00  -1.4485496E+00  -1.2767056E+00   2.6266537E+01   4.2318536E+01   5.3817250E+01   6.7408147E+01   7.7936026E+01   3.9899958E+01   6.7373749E+00   1.5935514E+01   2.3153025E+01   3.0615338E+01   3.6773784E+01   3.1978332E+01   2.1226322E+00   5.5913040E+00   8.7180276E+00   1.2995787E+01   2.0013611E+01   2.9648224E+01   5.3435148E-02   9.6817866E-01   2.2341232E+00   4.1420536E+00   7.0257685E+00   1.1066915E+01
   9.3999999E+02  -6.8584537E+00  -3.3547475E+01  -5.1469237E+01  -3.1307519E+01   2.2570743E+00  -8.3810824E+00  -8.1599244E+00  -2.6604010E+01  -5.0499343E+01  -7.3024823E+01  -5.8060476E+01  -2.5219275E+01   8.5911864E-01  -1.9094530E-01  -4.9381987E+00  -1.1220170E+01  -9.8122504E+00  -6.3711819E+00   6.7912885E-02  -3.8672190E-01  -2.4841088E+00  -8.5128839E+00  -1.6531648E+01  -1.7485426E+01  -2.1873487E+00  -1.5636223E+00   5.1180589E-01   1.6526384E+00  -2.4936873E+00  -1.0839676E+01  -5.0426372E-02  -2.9281153E-01  -8.2665315E-01  -2.0553734E+00  -5.4626255E+00  -1.0151182E+01  -1.6205638E-01  -5.9282790E-01  -6.2220608E-01  -1.9165854E-01   3.7964738E-01   6.3308897E-01   1.8195225E-02   4.0738136E-02   7.1746545E-02   1.2436534E-01   1.3775479E-01  -2.8727215E-01  -2.5223246E+01  -2.3287423E+01  -1.8203812E+01  -1.2415568E+01  -1.6515380E+01  -2.4253070E+01  -1.3686542E+01  -1.9708652E+01  -2.0215093E+01  -1.4740179E+01  -7.8832814E+00  -1.1955098E+01   4.5929268E-01  -2.6383063E+00  -4.2541681E+00  -4.8154563E+00  -4.9210380E+00  -6.5762960E+00   4.4603180E+00   2.4239453E+00   6.1763137E-01  -1.0036547E+00  -1.2255179E+00  -8.8725657E-01   2.6504211E+01   4.2877280E+01   5.4720611E+01   6.8849141E+01   8.0549775E+01   4.3992263E+01   6.9201427E+00   1.6363698E+01   2.3782180E+01   3.1590316E+01   3.8593122E+01   3.4990174E+01   2.1317311E+00   5.6235732E+00   8.7801071E+00   1.3101093E+01   2.0186934E+01   3.0357958E+01   5.7938094E-02   9.9501345E-01   2.2858035E+00   4.2158359E+00   7.1473346E+00   1.1426940E+01
   9.4499999E+02  -7.1975441E+00  -3.4713343E+01  -5.3206176E+01  -3.1376174E+01   4.0131389E+00  -7.1012403E+00  -8.6907282E+00  -2.7942842E+01  -5.2364657E+01  -7.3986841E+01  -5.4448176E+01  -1.9548027E+01   8.6594847E-01  -2.3582010E-01  -5.1755096E+00  -1.1731850E+01  -1.0075520E+01  -6.5052395E+00   5.2712476E-02  -4.8556279E-01  -2.7700960E+00  -9.1477084E+00  -1.7247685E+01  -1.7474013E+01  -2.2174230E+00  -1.8409789E+00   3.6498104E-01   1.9326634E+00  -1.7866124E+00  -1.0176355E+01  -7.4335321E-02  -2.7243641E-01  -7.3437283E-01  -1.9717491E+00  -5.5837757E+00  -1.0057478E+01  -1.2639624E-01  -5.9360800E-01  -6.6400001E-01  -2.5400311E-01   3.7977444E-01   7.0811896E-01   1.4884503E-02   3.0840475E-02   6.7891282E-02   1.3855853E-01   1.4665490E-01  -3.1454990E-01  -2.5688128E+01  -2.4024723E+01  -1.8873027E+01  -1.2691677E+01  -1.6351806E+01  -2.2962136E+01  -1.3637869E+01  -1.9468052E+01  -1.9577984E+01  -1.3368126E+01  -6.0426472E+00  -1.0588987E+01   4.1887135E-01  -2.7583418E+00  -4.4552223E+00  -5.0712114E+00  -5.2135026E+00  -6.8881903E+00   4.4565178E+00   2.4094695E+00   6.0223757E-01  -9.5993030E-01  -1.0048083E+00  -4.9176082E-01   2.6804911E+01   4.3524814E+01   5.5749227E+01   7.0464340E+01   8.3328602E+01   4.8641032E+01   7.0955238E+00   1.6812636E+01   2.4488350E+01   3.2688887E+01   4.0539467E+01   3.8245021E+01   2.1503548E+00   5.6711342E+00   8.8631195E+00   1.3239055E+01   2.0407982E+01   3.1152909E+01   6.1674411E-02   1.0170716E+00   2.3345001E+00   4.2961327E+00   7.2831810E+00   1.1805895E+01
   9.4999999E+02  -6.8513121E+00  -3.4705715E+01  -5.3922181E+01  -3.1693805E+01   4.7890853E+00  -6.7283961E+00  -9.1908008E+00  -2.9244322E+01  -5.4189939E+01  -7.4760592E+01  -5.0121714E+01  -1.3536878E+01   9.1632455E-01  -1.0845931E-01  -5.0893319E+00  -1.1838239E+01  -1.0079847E+01  -6.5027976E+00   4.0132554E-02  -5.7811663E-01  -3.0541058E+00  -9.7977355E+00  -1.7932409E+01  -1.7347768E+01  -2.1434779E+00  -2.3957749E+00  -5.4409701E-01   1.2896926E+00  -8.6959310E-01  -8.7231033E+00  -7.7879087E-02  -2.3408364E-01  -6.2290994E-01  -1.8731207E+00  -5.7081625E+00  -9.9344849E+00  -6.1051405E-02  -5.3690306E-01  -6.8930098E-01  -4.4870027E-01   1.9109148E-01   7.2255878E-01   1.4762911E-02   2.6428187E-02   7.0799479E-02   1.6138872E-01   1.6273522E-01  -3.3448851E-01  -2.5955981E+01  -2.4555423E+01  -1.9577823E+01  -1.3417760E+01  -1.7048078E+01  -2.2812977E+01  -1.3623052E+01  -1.9275627E+01  -1.8969904E+01  -1.1978166E+01  -4.1421515E+00  -9.1121599E+00   4.0052951E-01  -2.8130614E+00  -4.5615708E+00  -5.2437091E+00  -5.4762438E+00  -7.3032577E+00   4.4500082E+00   2.3856413E+00   5.7182029E-01  -9.3277676E-01  -7.9786344E-01  -9.8916406E-02   2.6935616E+01   4.4067005E+01   5.6836068E+01   7.2352980E+01   8.6458782E+01   5.4403957E+01   7.3002706E+00   1.7327252E+01   2.5280983E+01   3.3882821E+01   4.2590307E+01   4.1770503E+01   2.1394916E+00   5.6595769E+00   8.8760709E+00   1.3317616E+01   2.0589485E+01   3.1829441E+01   6.5987508E-02   1.0442206E+00   2.3939523E+00   4.3936518E+00   7.4376268E+00   1.2204094E+01
   9.5499999E+02  -5.0847814E+00  -3.2287300E+01  -5.3252776E+01  -3.4097426E+01   3.5857514E+00  -8.6550665E+00  -9.6290970E+00  -3.0435543E+01  -5.5892025E+01  -7.5344761E+01  -4.5226460E+01  -7.2742790E+00   1.0556977E+00   4.1125789E-01  -4.2638371E+00  -1.1245953E+01  -9.7486694E+00  -6.1766848E+00   3.1060162E-02  -6.5769819E-01  -3.3188043E+00  -1.0433431E+01  -1.8565636E+01  -1.7113734E+01  -1.0291153E+00  -1.8687679E+00  -1.4511454E+00  -1.4961310E+00  -1.0450709E+00  -5.2142939E+00  -7.9619463E-02  -2.1525529E-01  -5.3557196E-01  -1.7789772E+00  -5.8615524E+00  -9.8486844E+00   1.0196059E-01  -1.6170797E-01  -2.6973227E-01  -3.3589871E-01  -1.5079653E-01   5.3196499E-01   1.6101303E-02   2.3238613E-02   7.1473500E-02   1.8129869E-01   1.7749781E-01  -3.5761124E-01  -2.6346210E+01  -2.5648047E+01  -2.1456209E+01  -1.5593276E+01  -1.9114108E+01  -2.4812429E+01  -1.3617508E+01  -1.9113398E+01  -1.8416288E+01  -1.0665165E+01  -2.2829921E+00  -7.4958785E+00   3.9178777E-01  -2.8566217E+00  -4.7095532E+00  -5.5953416E+00  -5.9821605E+00  -8.0146617E+00   4.4440105E+00   2.3614050E+00   5.3831106E-01  -9.1622689E-01  -6.1606974E-01   2.6667059E-01   2.7018465E+01   4.4559874E+01   5.7909184E+01   7.4275790E+01   8.9323439E+01   5.8706644E+01   7.5104877E+00   1.7880134E+01   2.6169181E+01   3.5233056E+01   4.4816162E+01   4.5573530E+01   2.1228062E+00   5.6353203E+00   8.8733293E+00   1.3395540E+01   2.0823095E+01   3.2389579E+01   6.9102750E-02   1.0686599E+00   2.4529379E+00   4.5010430E+00   7.6140883E+00   1.2630827E+01
