~V
VERS. 2.0 : CWLS LOG ASCII STANDARD -VERSION 2.0
WRAP. NO : ONE LINE PER DEPTH STEP
~W
STRT.FT 0.0000 :START DEPTH                       
STOP.FT 1400.0000 :STOP DEPTH                     
STEP.FT 5.0000 :STEP                              
NULL. -999.25 :NULL VALUE
FLD.  :FIELD
PROV.  :PROVINCE
COMP.  :COMPANY
DATE.  :DATE
LOC.  :LOCATION
SRVC.  :SERVICE COMPANY
UWI.  :UNIQUE WELL ID
WELL. Well1 :WELL
~C
DEPTH.FT  :DEPTH
USDP-83ft-2kHz.deg :                              
USDP-83ft-6kHz.deg :                              
USDP-83ft-12kHz.deg :                             
USDP-83ft-24kHz.deg :                             
USDP-83ft-48kHz.deg :                             
USDP-83ft-96kHz.deg :                             
USDP-43ft-2kHz.deg :                              
USDP-43ft-6kHz.deg :                              
USDP-43ft-12kHz.deg :                             
USDP-43ft-24kHz.deg :                             
USDP-43ft-48kHz.deg :                             
USDP-43ft-96kHz.deg :                             
USDA-83ft-2kHz.dB :                               
USDA-83ft-6kHz.dB :                               
USDA-83ft-12kHz.dB :                              
USDA-83ft-24kHz.dB :                              
USDA-83ft-48kHz.dB :                              
USDA-83ft-96kHz.dB :                              
USDA-43ft-2kHz.dB :                               
USDA-43ft-6kHz.dB :                               
USDA-43ft-12kHz.dB :                              
USDA-43ft-24kHz.dB :                              
USDA-43ft-48kHz.dB :                              
USDA-43ft-96kHz.dB :                              
UADP-83ft-2kHz.deg :                              
UADP-83ft-6kHz.deg :                              
UADP-83ft-12kHz.deg :                             
UADP-83ft-24kHz.deg :                             
UADP-83ft-48kHz.deg :                             
UADP-83ft-96kHz.deg :                             
UADP-43ft-2kHz.deg :                              
UADP-43ft-6kHz.deg :                              
UADP-43ft-12kHz.deg :                             
UADP-43ft-24kHz.deg :                             
UADP-43ft-48kHz.deg :                             
UADP-43ft-96kHz.deg :                             
UADA-83ft-2kHz.dB :                               
UADA-83ft-6kHz.dB :                               
UADA-83ft-12kHz.dB :                              
UADA-83ft-24kHz.dB :                              
UADA-83ft-48kHz.dB :                              
UADA-83ft-96kHz.dB :                              
UADA-43ft-2kHz.dB :                               
UADA-43ft-6kHz.dB :                               
UADA-43ft-12kHz.dB :                              
UADA-43ft-24kHz.dB :                              
UADA-43ft-48kHz.dB :                              
UADA-43ft-96kHz.dB :                              
UHRP-83ft-2kHz.deg :                              
UHRP-83ft-6kHz.deg :                              
UHRP-83ft-12kHz.deg :                             
UHRP-83ft-24kHz.deg :                             
UHRP-83ft-48kHz.deg :                             
UHRP-83ft-96kHz.deg :                             
UHRP-43ft-2kHz.deg :                              
UHRP-43ft-6kHz.deg :                              
UHRP-43ft-12kHz.deg :                             
UHRP-43ft-24kHz.deg :                             
UHRP-43ft-48kHz.deg :                             
UHRP-43ft-96kHz.deg :                             
UHRA-83ft-2kHz.dB :                               
UHRA-83ft-6kHz.dB :                               
UHRA-83ft-12kHz.dB :                              
UHRA-83ft-24kHz.dB :                              
UHRA-83ft-48kHz.dB :                              
UHRA-83ft-96kHz.dB :                              
UHRA-43ft-2kHz.dB :                               
UHRA-43ft-6kHz.dB :                               
UHRA-43ft-12kHz.dB :                              
UHRA-43ft-24kHz.dB :                              
UHRA-43ft-48kHz.dB :                              
UHRA-43ft-96kHz.dB :                              
UHAP-83ft-2kHz.deg :                              
UHAP-83ft-6kHz.deg :                              
UHAP-83ft-12kHz.deg :                             
UHAP-83ft-24kHz.deg :                             
UHAP-83ft-48kHz.deg :                             
UHAP-83ft-96kHz.deg :                             
UHAP-43ft-2kHz.deg :                              
UHAP-43ft-6kHz.deg :                              
UHAP-43ft-12kHz.deg :                             
UHAP-43ft-24kHz.deg :                             
UHAP-43ft-48kHz.deg :                             
UHAP-43ft-96kHz.deg :                             
UHAA-83ft-2kHz.dB :                               
UHAA-83ft-6kHz.dB :                               
UHAA-83ft-12kHz.dB :                              
UHAA-83ft-24kHz.dB :                              
UHAA-83ft-48kHz.dB :                              
UHAA-83ft-96kHz.dB :                              
UHAA-43ft-2kHz.dB :                               
UHAA-43ft-6kHz.dB :                               
UHAA-43ft-12kHz.dB :                              
UHAA-43ft-24kHz.dB :                              
UHAA-43ft-48kHz.dB :                              
UHAA-43ft-96kHz.dB :                              
~A
# ...
   1.1100000E+03   4.8920904E+01   4.2920543E+01   2.0463926E+01   1.5575049E+01   2.8314678E+01   4.8577313E+01   1.9442980E+01   3.9920220E+01   4.9438312E+01   4.8125239E+01   4.0771382E+01   4.0410102E+01   5.4333534E+00   1.3630804E+01   1.5328100E+01   1.4485413E+01   1.4454584E+01   1.5831236E+01   9.1274000E-01   3.9303111E+00   7.7385022E+00   1.1966485E+01   1.4849034E+01   1.6446987E+01  -3.9449624E-01  -2.8044718E+00  -5.8502384E+00  -9.5741039E+00  -1.5512269E+01  -2.4652678E+01   3.0070799E-01  -6.9335453E-02  -9.4047783E-01  -2.7238975E+00  -5.4993717E+00  -9.1856062E+00   5.8308230E-02   1.4322767E-01  -4.1395659E-02  -3.5228255E-01  -7.7692418E-01  -1.3637648E+00   5.8348157E-02   1.4473020E-01   1.9670325E-01   1.9367198E-01   4.3371731E-02  -2.5433068E-01  -1.8242125E+01  -1.0505442E+01  -1.0961637E+01  -1.6516248E+01  -2.1794423E+01  -2.6512514E+01  -1.3300062E+01  -1.5822466E+01  -1.4456229E+01  -1.3663379E+01  -1.7180436E+01  -2.5425609E+01   5.6898650E-01  -8.4175369E-01  -9.5068351E-01  -1.5928938E+00  -2.9286629E+00  -4.4084929E+00   4.2779174E+00   2.3539925E+00   1.2480558E+00   5.8754870E-01   6.9808010E-02  -9.9818361E-01   2.5474473E+01   3.7178595E+01   3.9594803E+01   3.1844287E+01   1.5547279E+01   4.4349488E-02   5.6190023E+00   1.2396123E+01   1.6862397E+01   1.9712918E+01   1.8512337E+01   1.2183805E+01   2.3465744E+00   6.0939931E+00   9.4835146E+00   1.2981017E+01   1.4989594E+01   1.5195702E+01   5.8522837E-02   9.0082216E-01   1.9826716E+00   3.5315742E+00   5.3425159E+00   6.8331698E+00
   1.1150000E+03   4.7885836E+01   4.3295602E+01   2.2248891E+01   1.7624821E+01   3.0442161E+01   5.1250545E+01   1.8713830E+01   3.8530916E+01   4.8117367E+01   4.7741985E+01   4.1516690E+01   4.1351221E+01   5.2507273E+00   1.3259363E+01   1.5092992E+01   1.4447308E+01   1.4529197E+01   1.5995321E+01   8.7608050E-01   3.7560146E+00   7.3997746E+00   1.1509018E+01   1.4452740E+01   1.6226853E+01  -4.5058043E-01  -2.8958145E+00  -5.8744193E+00  -9.6618831E+00  -1.5713153E+01  -2.5048055E+01   2.6775798E-01  -1.2191905E-01  -9.8205387E-01  -2.7227138E+00  -5.4347251E+00  -9.0782024E+00   7.2140260E-02   1.3283914E-01  -4.7699257E-02  -3.5101145E-01  -7.7043654E-01  -1.3382986E+00   5.8675706E-02   1.3732441E-01   1.8369055E-01   1.7533714E-01   2.6054410E-02  -2.7163925E-01  -1.8626988E+01  -1.1190376E+01  -1.1623266E+01  -1.7044584E+01  -2.2263150E+01  -2.7030754E+01  -1.3331105E+01  -1.6121405E+01  -1.5084447E+01  -1.4546494E+01  -1.8047310E+01  -2.6093043E+01   5.5466656E-01  -9.2945064E-01  -1.1002575E+00  -1.7844547E+00  -3.1426459E+00  -4.6475358E+00   4.2879576E+00   2.3692834E+00   1.2351445E+00   5.0434516E-01  -9.8250068E-02  -1.2263153E+00   2.5146388E+01   3.6402671E+01   3.8448219E+01   3.0532874E+01   1.4365690E+01  -1.0134344E+00   5.4646753E+00   1.2008995E+01   1.6240491E+01   1.8777248E+01   1.7328897E+01   1.1038089E+01   2.3324262E+00   6.0381183E+00   9.3567827E+00   1.2740094E+01   1.4651417E+01   1.4777451E+01   5.6596094E-02   8.8138426E-01   1.9375445E+00   3.4352064E+00   5.1550322E+00   6.5379914E+00
   1.1200000E+03   4.6804362E+01   4.3551241E+01   2.3913747E+01   1.9606059E+01   3.2525236E+01   5.3873248E+01   1.7997010E+01   3.7145199E+01   4.6737981E+01   4.7168707E+01   4.1951084E+01   4.1919404E+01   5.0672191E+00   1.2877900E+01   1.4833146E+01   1.4377648E+01   1.4572422E+01   1.6130312E+01   8.4069081E-01   3.5886523E+00   7.0729264E+00   1.1059442E+01   1.4043887E+01   1.5974617E+01  -4.9814829E-01  -2.9327782E+00  -5.8580634E+00  -9.7082805E+00  -1.5854912E+01  -2.5346012E+01   2.3972328E-01  -1.6237668E-01  -1.0102613E+00  -2.7088799E+00  -5.3549565E+00  -8.9402112E+00   8.0696827E-02   1.2357166E-01  -4.8859542E-02  -3.4382343E-01  -7.5716740E-01  -1.3055749E+00   5.8991857E-02   1.3101601E-01   1.7276414E-01   1.5989693E-01   1.1260258E-02  -2.8742875E-01  -1.8999372E+01  -1.1872018E+01  -1.2289698E+01  -1.7587571E+01  -2.2765882E+01  -2.7592799E+01  -1.3358114E+01  -1.6394006E+01  -1.5668854E+01  -1.5382993E+01  -1.8878766E+01  -2.6735798E+01   5.4248249E-01  -1.0130990E+00  -1.2458660E+00  -1.9720127E+00  -3.3541660E+00  -4.8882080E+00   4.2978827E+00   2.3846778E+00   1.2255242E+00   4.2901066E-01  -2.5496606E-01  -1.4425530E+00   2.4825966E+01   3.5649611E+01   3.7342010E+01   2.9275761E+01   1.3236632E+01  -2.0200965E+00   5.3216970E+00   1.1637460E+01   1.5646546E+01   1.7896235E+01   1.6224911E+01   9.9752438E+00   2.3195006E+00   5.9838838E+00   9.2336017E+00   1.2507207E+01   1.4325383E+01   1.4375496E+01   5.5311588E-02   8.6367548E-01   1.8941664E+00   3.3427129E+00   4.9771316E+00   6.2599572E+00
   1.1250000E+03   4.5693784E+01   4.3651512E+01   2.5389496E+01   2.1434371E+01   3.4442232E+01   5.6269084E+01   1.7289721E+01   3.5760497E+01   4.5302610E+01   4.6416330E+01   4.2093050E+01   4.2137850E+01   4.8865742E+00   1.2493664E+01   1.4549953E+01   1.4273667E+01   1.4577240E+01   1.6223322E+01   8.0641511E-01   3.4272439E+00   6.7565704E+00   1.0616521E+01   1.3622284E+01   1.5690245E+01  -5.6123523E-01  -2.9908781E+00  -5.8633286E+00  -9.7724218E+00  -1.6016132E+01  -2.5669361E+01   2.0695781E-01  -2.1220230E-01  -1.0539283E+00  -2.7133510E+00  -5.2913819E+00  -8.8054823E+00   9.0724641E-02   1.1325667E-01  -5.3185875E-02  -3.4098999E-01  -7.4931742E-01  -1.2805897E+00   5.8603027E-02   1.2396474E-01   1.5999894E-01   1.4107120E-01  -9.1929782E-03  -3.1118790E-01  -1.9371827E+01  -1.2532088E+01  -1.2939285E+01  -1.8125497E+01  -2.3269006E+01  -2.8152666E+01  -1.3378056E+01  -1.6644557E+01  -1.6214648E+01  -1.6171174E+01  -1.9670656E+01  -2.7349061E+01   5.2535626E-01  -1.0992355E+00  -1.3913100E+00  -2.1587717E+00  -3.5654844E+00  -5.1301766E+00   4.3079389E+00   2.4007873E+00   1.2186743E+00   3.6074658E-01  -4.0049953E-01  -1.6465068E+00   2.4521777E+01   3.4912214E+01   3.6273214E+01   2.8084988E+01   1.2186898E+01  -2.9375907E+00   5.1841598E+00   1.1286044E+01   1.5084305E+01   1.7062037E+01   1.5186074E+01   8.9772655E+00   2.3116540E+00   5.9343706E+00   9.1152843E+00   1.2283427E+01   1.4014122E+01   1.3995261E+01   5.4235774E-02   8.4679007E-01   1.8531342E+00   3.2548208E+00   4.8082959E+00   5.9971965E+00
   1.1300000E+03   4.4520370E+01   4.3651493E+01   2.6740403E+01   2.3136559E+01   3.6231930E+01   5.8508305E+01   1.6598405E+01   3.4397134E+01   4.3843654E+01   4.5524005E+01   4.1970233E+01   4.2011364E+01   4.7051089E+00   1.2097976E+01   1.4247171E+01   1.4140546E+01   1.4547535E+01   1.6280497E+01   7.7308474E-01   3.2724262E+00   6.4533017E+00   1.0186412E+01   1.3197956E+01   1.5383852E+01  -6.0660581E-01  -2.9964447E+00  -5.8467798E+00  -9.8219685E+00  -1.6160348E+01  -2.5972846E+01   1.8285115E-01  -2.4845047E-01  -1.0847328E+00  -2.7075877E+00  -5.2190851E+00  -8.6539176E+00   9.3953969E-02   1.0578089E-01  -5.1768395E-02  -3.3315963E-01  -7.3646980E-01  -1.2520073E+00   5.7723393E-02   1.1827654E-01   1.4962272E-01   1.2548254E-01  -2.6612150E-02  -3.3277043E-01  -1.9712569E+01  -1.3225106E+01  -1.3631815E+01  -1.8672349E+01  -2.3767737E+01  -2.8719258E+01  -1.3392305E+01  -1.6885440E+01  -1.6731081E+01  -1.6913131E+01  -2.0420483E+01  -2.7920061E+01   5.2144651E-01  -1.1714723E+00  -1.5300704E+00  -2.3419569E+00  -3.7705261E+00  -5.3654557E+00   4.3187952E+00   2.4172261E+00   1.2125625E+00   2.9721964E-01  -5.3744602E-01  -1.8404194E+00   2.4213437E+01   3.4248408E+01   3.5298019E+01   2.6962022E+01   1.1174458E+01  -3.8160302E+00   5.0509303E+00   1.0966292E+01   1.4563434E+01   1.6282069E+01   1.4222984E+01   8.0518094E+00   2.2934079E+00   5.8781226E+00   9.0000783E+00   1.2071344E+01   1.3716023E+01   1.3629045E+01   5.1703633E-02   8.2987532E-01   1.8150750E+00   3.1722017E+00   4.6500397E+00   5.7521299E+00
   1.1350000E+03   4.3344145E+01   4.3510783E+01   2.7906526E+01   2.4708529E+01   3.7901108E+01   6.0583459E+01   1.5917029E+01   3.3038969E+01   4.2344844E+01   4.4490987E+01   4.1595979E+01   4.1556347E+01   4.5283745E+00   1.1706207E+01   1.3926219E+01   1.3977467E+01   1.4486243E+01   1.6306742E+01   7.4070642E-01   3.1229348E+00   6.1594854E+00   9.7639732E+00   1.2766802E+01   1.5052269E+01  -6.7210989E-01  -3.0250893E+00  -5.8354486E+00  -9.8621297E+00  -1.6290207E+01  -2.6260607E+01   1.5738587E-01  -2.8619345E-01  -1.1205655E+00  -2.7126135E+00  -5.1602777E+00  -8.5087187E+00   9.7315358E-02   9.4243778E-02  -5.6408996E-02  -3.3040865E-01  -7.2774901E-01  -1.2271951E+00   5.6968311E-02   1.1284976E-01   1.3952077E-01   1.0958481E-01  -4.6021901E-02  -3.5865362E-01  -2.0050296E+01  -1.3868437E+01  -1.4285290E+01  -1.9219372E+01  -2.4287674E+01  -2.9298612E+01  -1.3404190E+01  -1.7100519E+01  -1.7205084E+01  -1.7605814E+01  -2.1124179E+01  -2.8450953E+01   5.0957988E-01  -1.2468754E+00  -1.6651576E+00  -2.5196424E+00  -3.9735563E+00  -5.6021677E+00   4.3285396E+00   2.4328781E+00   1.2085850E+00   2.3993101E-01  -6.6423202E-01  -2.0219986E+00   2.3921254E+01   3.3576194E+01   3.4336115E+01   2.5890225E+01   1.0224045E+01  -4.6351823E+00   4.9289816E+00   1.0655789E+01   1.4060968E+01   1.5540136E+01   1.3312503E+01   7.1810783E+00   2.2839122E+00   5.8286811E+00   8.8887326E+00   1.1866167E+01   1.3430709E+01   1.3280524E+01   5.0447960E-02   8.1512716E-01   1.7787900E+00   3.0930301E+00   4.4991959E+00   5.5192190E+00
