~V
VERS. 2.0 : CWLS LOG ASCII STANDARD -VERSION 2.0
WRAP. NO : ONE LINE PER DEPTH STEP
~W
STRT.FT 0.0000 :START DEPTH                       
STOP.FT 1400.0000 :STOP DEPTH                     
STEP.FT 5.0000 :STEP                              
NULL. -999.25 :NULL VALUE
FLD.  :FIELD
PROV.  :PROVINCE
COMP.  :COMPANY
DATE.  :DATE
LOC.  :LOCATION
SRVC.  :SERVICE COMPANY
UWI.  :UNIQUE WELL ID
WELL. Well1 :WELL
~C
DEPTH.FT  :DEPTH
USDP-83ft-2kHz.deg :                              
USDP-83ft-6kHz.deg :                              
USDP-83ft-12kHz.deg :                             
USDP-83ft-24kHz.deg :                             
USDP-83ft-48kHz.deg :                             
USDP-83ft-96kHz.deg :                             
USDP-43ft-2kHz.deg :                              
USDP-43ft-6kHz.deg :                              
USDP-43ft-12kHz.deg :                             
USDP-43ft-24kHz.deg :                             
USDP-43ft-48kHz.deg :                             
USDP-43ft-96kHz.deg :                             
USDA-83ft-2kHz.dB :                               
USDA-83ft-6kHz.dB :                               
USDA-83ft-12kHz.dB :                              
USDA-83ft-24kHz.dB :                              
USDA-83ft-48kHz.dB :                              
USDA-83ft-96kHz.dB :                              
USDA-43ft-2kHz.dB :                               
USDA-43ft-6kHz.dB :                               
USDA-43ft-12kHz.dB :                              
USDA-43ft-24kHz.dB :                              
USDA-43ft-48kHz.dB :                              
USDA-43ft-96kHz.dB :                              
UADP-83ft-2kHz.deg :                              
UADP-83ft-6kHz.deg :                              
UADP-83ft-12kHz.deg :                             
UADP-83ft-24kHz.deg :                             
UADP-83ft-48kHz.deg :                             
UADP-83ft-96kHz.deg :                             
UADP-43ft-2kHz.deg :                              
UADP-43ft-6kHz.deg :                              
UADP-43ft-12kHz.deg :                             
UADP-43ft-24kHz.deg :                             
UADP-43ft-48kHz.deg :                             
UADP-43ft-96kHz.deg :                             
UADA-83ft-2kHz.dB :                               
UADA-83ft-6kHz.dB :                               
UADA-83ft-12kHz.dB :                              
UADA-83ft-24kHz.dB :                              
UADA-83ft-48kHz.dB :                              
UADA-83ft-96kHz.dB :                              
UADA-43ft-2kHz.dB :                               
UADA-43ft-6kHz.dB :                               
UADA-43ft-12kHz.dB :                              
UADA-43ft-24kHz.dB :                              
UADA-43ft-48kHz.dB :                              
UADA-43ft-96kHz.dB :                              
UHRP-83ft-2kHz.deg :                              
UHRP-83ft-6kHz.deg :                              
UHRP-83ft-12kHz.deg :                             
UHRP-83ft-24kHz.deg :                             
UHRP-83ft-48kHz.deg :                             
UHRP-83ft-96kHz.deg :                             
UHRP-43ft-2kHz.deg :                              
UHRP-43ft-6kHz.deg :                              
UHRP-43ft-12kHz.deg :                             
UHRP-43ft-24kHz.deg :                             
UHRP-43ft-48kHz.deg :                             
UHRP-43ft-96kHz.deg :                             
UHRA-83ft-2kHz.dB :                               
UHRA-83ft-6kHz.dB :                               
UHRA-83ft-12kHz.dB :                              
UHRA-83ft-24kHz.dB :                              
UHRA-83ft-48kHz.dB :                              
UHRA-83ft-96kHz.dB :                              
UHRA-43ft-2kHz.dB :                               
UHRA-43ft-6kHz.dB :                               
UHRA-43ft-12kHz.dB :                              
UHRA-43ft-24kHz.dB :                              
UHRA-43ft-48kHz.dB :                              
UHRA-43ft-96kHz.dB :                              
UHAP-83ft-2kHz.deg :                              
UHAP-83ft-6kHz.deg :                              
UHAP-83ft-12kHz.deg :                             
UHAP-83ft-24kHz.deg :                             
UHAP-83ft-48kHz.deg :                             
UHAP-83ft-96kHz.deg :                             
UHAP-43ft-2kHz.deg :                              
UHAP-43ft-6kHz.deg :                              
UHAP-43ft-12kHz.deg :                             
UHAP-43ft-24kHz.deg :                             
UHAP-43ft-48kHz.deg :                             
UHAP-43ft-96kHz.deg :                             
UHAA-83ft-2kHz.dB :                               
UHAA-83ft-6kHz.dB :                               
UHAA-83ft-12kHz.dB :                              
UHAA-83ft-24kHz.dB :                              
UHAA-83ft-48kHz.dB :                              
UHAA-83ft-96kHz.dB :                              
UHAA-43ft-2kHz.dB :                               
UHAA-43ft-6kHz.dB :                               
UHAA-43ft-12kHz.dB :                              
UHAA-43ft-24kHz.dB :                              
UHAA-43ft-48kHz.dB :                              
UHAA-43ft-96kHz.dB :                              
~A
# ...
   1.8000000E+02   3.6425582E+00   5.6274840E+00   6.5664517E+00   8.0628174E+00   8.6355351E+00   1.3014060E+01   5.2747944E-01   1.3331539E+00   3.1001821E+00   7.3907375E+00   1.3206083E+01   1.3635570E+01   2.9579994E-01   8.4248564E-01   1.2858995E+00   1.9541265E+00   3.1889941E+00   3.6061540E+00   2.3587117E-02   8.2834040E-03  -3.7434048E-02   8.7803270E-02   9.4936497E-01   2.4962917E+00   1.9636357E+00  -5.5961070E-01  -2.9744737E+00  -2.1055784E+00   3.9037354E-01  -9.9057908E+00  -4.3602047E-01  -1.6299808E+00  -1.7832166E+00   9.0705212E-01   5.4319658E+00   2.4903714E+00   5.1470508E-01   7.8327501E-01   4.8483440E-01  -1.6781311E-01  -4.1825922E-01   1.4381783E-01   5.1437445E-02  -6.5111890E-02  -3.5419535E-01  -6.4520244E-01  -1.6078049E-01   9.3071853E-01  -2.1767260E+01  -2.1911009E+01  -2.3127822E+01  -2.7672198E+01  -3.3752587E+01  -3.8210440E+01  -1.1340436E+01  -1.5349453E+01  -1.7861097E+01  -2.1285963E+01  -2.5937101E+01  -3.1157865E+01   1.0512640E+00  -1.3288204E+00  -2.5778515E+00  -3.9917549E+00  -6.0665812E+00  -8.6637914E+00   4.4886050E+00   3.0438855E+00   1.9915926E+00   8.0474795E-01  -6.6627035E-01  -2.5704056E+00   3.0710695E+01   5.5872028E+01   7.8197646E+01   1.0686173E+02   1.3900336E+02  -1.6681670E+02   1.4939218E+01   3.3455332E+01   5.0616190E+01   7.2894378E+01   1.0228430E+02   1.4287293E+02   2.3194517E+00   5.9688323E+00   9.5156274E+00   1.4193352E+01   2.0683011E+01   4.6028805E+01   4.9749205E-01   2.2491619E+00   4.4806121E+00   7.8623480E+00   1.2638043E+01   1.9271002E+01
   1.8500000E+02   3.8437806E+00   5.6033857E+00   5.6619396E+00   6.1676587E+00   7.4592523E+00   1.1566963E+01   6.3134714E-01   1.2687249E+00   2.4507905E+00   5.7305245E+00   1.1919212E+01   1.5875663E+01   3.1684000E-01   9.3677445E-01   1.3868789E+00   1.8565525E+00   2.8150514E+00   3.7089322E+00   1.0435401E-01   1.2898773E-01   8.9390082E-02   5.9158375E-02   4.1117891E-01   1.4111018E+00   2.4119231E+00   2.0417599E-01  -2.6328607E+00  -2.9023905E+00   2.0376146E-01  -6.2689355E+00  -2.5713641E-01  -1.5062255E+00  -2.2970669E+00  -1.0979493E+00   3.0028950E+00   3.3433835E+00   5.3899669E-01   9.1266394E-01   7.2445412E-01   4.7888063E-02  -4.5745941E-01  -1.8825673E-01   4.0461834E-03  -4.5770840E-02  -2.6832712E-01  -5.9641562E-01  -3.6559842E-01   1.0968682E+00  -2.2756231E+01  -2.2949813E+01  -2.3845133E+01  -2.7824656E+01  -3.3883014E+01  -3.8839904E+01  -1.1970332E+01  -1.6349649E+01  -1.8931676E+01  -2.2270232E+01  -2.6817648E+01  -3.2362674E+01   8.9709401E-01  -1.6280439E+00  -2.9657394E+00  -4.3973681E+00  -6.4143282E+00  -9.0290800E+00   4.4357450E+00   2.8913011E+00   1.7539253E+00   4.9181624E-01  -1.0157423E+00  -2.9027704E+00   2.9067181E+01   5.2080373E+01   7.2194269E+01   9.8287563E+01   1.2958872E+02   1.6040782E+02   1.3101103E+01   2.9764900E+01   4.5314840E+01   6.5638394E+01   9.2181592E+01   1.2495636E+02   2.2370368E+00   5.7345256E+00   9.0899263E+00   1.3465121E+01   1.9196820E+01   3.1874324E+01   6.2326385E-01   2.1415622E+00   4.0841846E+00   6.9856302E+00   1.0919857E+01   1.6101177E+01
   1.9000000E+02   3.9720445E+00   5.6124139E+00   5.0103975E+00   4.4679330E+00   5.8260817E+00   1.0190056E+01   4.8865088E-01   6.7433038E-01   9.0057733E-01   2.2200105E+00   6.1378400E+00   1.0834479E+01   3.2335468E-01   9.9849301E-01   1.4704814E+00   1.8117647E+00   2.4750500E+00   3.6513375E+00   7.9631924E-03   6.1228067E-02   4.2901293E-02  -4.9005346E-02   9.4643527E-03   8.3775187E-01   2.7431707E+00   9.4031006E-01  -2.0154328E+00  -3.2426548E+00  -4.2478463E-01  -3.2661177E+00   1.7972030E-01  -6.3252673E-01  -1.3409797E+00  -5.6244298E-01   3.7491849E+00   8.4442926E+00   5.4790906E-01   9.9633957E-01   9.1895821E-01   2.9903035E-01  -3.9998614E-01  -4.7752227E-01   1.2543889E-01   1.4572645E-01   4.8031384E-03  -3.1293961E-01  -4.1561548E-01   4.7210908E-01  -2.3749185E+01  -2.4050789E+01  -2.4701532E+01  -2.8099501E+01  -3.3842631E+01  -3.9208088E+01  -1.2622793E+01  -1.7407749E+01  -2.0094339E+01  -2.3342976E+01  -2.7618212E+01  -3.2925210E+01   7.4865729E-01  -1.9207316E+00  -3.3560312E+00  -4.8339155E+00  -6.7967438E+00  -9.3847088E+00   4.4265341E+00   2.7796411E+00   1.5486275E+00   1.8982191E-01  -1.3980819E+00  -3.3209606E+00   2.7499245E+01   4.8352291E+01   6.6177997E+01   8.9386048E+01   1.1877230E+02   1.4970685E+02   1.1309561E+01   2.5841229E+01   3.9314034E+01   5.6888637E+01   8.0081184E+01   1.0995150E+02   2.1720883E+00   5.5256059E+00   8.6857528E+00   1.2743408E+01   1.7848295E+01   2.6598104E+01   5.4966652E-01   1.8692887E+00   3.5633407E+00   6.0833085E+00   9.4786750E+00   1.3811963E+01
   1.9500000E+02   4.0329001E+00   5.6096396E+00   4.5135838E+00   2.9387287E+00   3.6773893E+00   8.2831039E+00   5.3368502E-01   6.1080887E-01   3.8230527E-01   5.4689644E-01   2.8709904E+00   8.5716245E+00   3.2118747E-01   1.0348616E+00   1.5334334E+00   1.7965475E+00   2.1567614E+00   3.3009419E+00   2.7987256E-02   1.1405996E-01   1.2977147E-01   1.6940821E-02  -1.8749308E-01   1.1404074E-02   2.9945378E+00   1.6786767E+00  -1.1155368E+00  -2.9656850E+00  -1.0011473E+00  -9.8267160E-01   3.9638436E-01  -1.7280377E-01  -9.5332664E-01  -9.8361171E-01   1.7798560E+00   6.9967119E+00   5.4548260E-01   1.0444756E+00   1.0745767E+00   5.7921858E-01  -1.8607831E-01  -5.8505249E-01   1.2144684E-01   1.8994489E-01   1.2677661E-01  -1.1639447E-01  -3.4415322E-01   1.4210075E-01  -2.4736214E+01  -2.5198864E+01  -2.5685078E+01  -2.8538585E+01  -3.3710060E+01  -3.9283649E+01  -1.3283990E+01  -1.8576542E+01  -2.1491125E+01  -2.4803701E+01  -2.8939393E+01  -3.3858364E+01   6.0310209E-01  -2.2080346E+00  -3.7468640E+00  -5.2972064E+00  -7.2279621E+00  -9.7441253E+00   4.3801592E+00   2.6327022E+00   1.3008483E+00  -1.7437396E-01  -1.8795970E+00  -3.8824236E+00   2.5997045E+01   4.4696304E+01   6.0195210E+01   8.0340192E+01   1.0707742E+02   1.3851454E+02   9.5320396E+00   2.1854661E+01   3.3094183E+01   4.7593694E+01   6.6862417E+01   9.3191252E+01   2.1193800E+00   5.3364201E+00   8.2995457E+00   1.2026174E+01   1.6566370E+01   2.3156777E+01   4.6227491E-01   1.5937880E+00   3.0496908E+00   5.2038515E+00   8.1061802E+00   1.1826102E+01
   2.0000000E+02   4.0235851E+00   5.5840526E+00   4.1934366E+00   1.8204096E+00   1.5913233E+00   6.1401369E+00   5.4503862E-01   5.2813331E-01  -7.4590259E-02  -9.4726231E-01  -5.5523242E-01   3.9079854E+00   3.1350820E-01   1.0458454E+00   1.5661014E+00   1.7934795E+00   1.9075405E+00   2.7721370E+00   3.8245322E-02   1.4930433E-01   1.9896019E-01   9.8116422E-02  -2.5380638E-01  -6.3109899E-01   3.1335869E+00   2.2812814E+00  -1.8541327E-01  -2.3143191E+00  -1.4226951E+00   1.1553886E-02   5.8853062E-01   3.2212225E-01  -3.2614252E-01  -7.3765129E-01   6.8727310E-01   4.9120756E+00   5.2907115E-01   1.0518329E+00   1.1692198E+00   8.2517971E-01   1.1581818E-01  -5.2389837E-01   1.1891988E-01   2.2150329E-01   2.2710559E-01   8.5223386E-02  -1.3785080E-01   1.6103426E-02  -2.5722698E+01  -2.6397485E+01  -2.6803384E+01  -2.9194535E+01  -3.3634850E+01  -3.9080844E+01  -1.3954231E+01  -1.9825092E+01  -2.3055596E+01  -2.6533505E+01  -3.0605715E+01  -3.5042553E+01   4.6217716E-01  -2.4879156E+00  -4.1347087E+00  -5.7804923E+00  -7.7157866E+00  -1.0134858E+01   4.3387585E+00   2.4918181E+00   1.0532235E+00  -5.5495094E-01  -2.4082420E+00  -4.5511810E+00   2.4542809E+01   4.1096444E+01   5.4251247E+01   7.1239244E+01   9.4802977E+01   1.2591969E+02   7.8185964E+00   1.7961014E+01   2.6962390E+01   3.8334080E+01   5.3454058E+01   7.5048455E+01   2.0792155E+00   5.1647188E+00   7.9288106E+00   1.1312161E+01   1.5318113E+01   2.0541943E+01   3.9270992E-01   1.3450290E+00   2.5675943E+00   4.3486069E+00   6.7132560E+00   9.7552144E+00
   2.0500000E+02   3.9259426E+00   5.4571768E+00   3.8934572E+00   9.1020541E-01  -5.1738999E-01   3.3665267E+00   5.2483114E-01   4.3958846E-01  -4.2299787E-01  -2.1010746E+00  -3.5625789E+00  -1.9134859E+00   2.9901576E-01   1.0298031E+00   1.5607098E+00   1.7771126E+00   1.7107670E+00   2.1284316E+00   3.8662089E-02   1.6463245E-01   2.4341519E-01   1.7665020E-01  -2.1602125E-01  -9.7207649E-01   3.1960725E+00   2.8088557E+00   8.3254446E-01  -1.1785571E+00  -1.1753628E+00   1.8831019E-01   7.3844752E-01   7.9096724E-01   4.1288978E-01  -2.5370341E-02   4.8090914E-01   2.9749365E+00   5.0587400E-01   1.0309452E+00   1.2167743E+00   1.0362479E+00   4.9601505E-01  -2.2965652E-01   1.1760970E-01   2.3984472E-01   3.0072206E-01   2.6743942E-01   1.4139858E-01   1.5142957E-01  -2.6704147E+01  -2.7630109E+01  -2.8027163E+01  -3.0048878E+01  -3.3674258E+01  -3.8481096E+01  -1.4633467E+01  -2.1152504E+01  -2.4785779E+01  -2.8533106E+01  -3.2646015E+01  -3.6708676E+01   3.2405846E-01  -2.7619136E+00  -4.5188800E+00  -6.2777612E+00  -8.2602949E+00  -1.0585718E+01   4.3027315E+00   2.3574741E+00   8.0679248E-01  -9.4873627E-01  -2.9743435E+00  -5.3055828E+00   2.3084535E+01   3.7448020E+01   4.8202582E+01   6.1910456E+01   8.1768512E+01   1.1099802E+02   6.1499370E+00   1.4127418E+01   2.0881660E+01   2.9081357E+01   3.9914168E+01   5.6090512E+01   2.0420203E+00   4.9952457E+00   7.5530035E+00   1.0575806E+01   1.4046368E+01   1.8306548E+01   3.2288752E-01   1.1024287E+00   2.0955295E+00   3.4994632E+00   5.2953763E+00   7.5757510E+00
