~V
VERS. 2.0 : CWLS LOG ASCII STANDARD -VERSION 2.0
WRAP. NO : ONE LINE PER DEPTH STEP
~W
STRT.FT 0.0000 :START DEPTH                       
STOP.FT 1400.0000 :STOP DEPTH                     
STEP.FT 5.0000 :STEP                              
NULL. -999.25 :NULL VALUE
FLD.  :FIELD
PROV.  :PROVINCE
COMP.  :COMPANY
DATE.  :DATE
LOC.  :LOCATION
SRVC.  :SERVICE COMPANY
UWI.  :UNIQUE WELL ID
WELL. Well1 :WELL
~C
DEPTH.FT  :DEPTH
USDP-83ft-2kHz.deg :                              
USDP-83ft-6kHz.deg :                              
USDP-83ft-12kHz.deg :                             
USDP-83ft-24kHz.deg :                             
USDP-83ft-48kHz.deg :                             
USDP-83ft-96kHz.deg :                             
USDP-43ft-2kHz.deg :                              
USDP-43ft-6kHz.deg :                              
USDP-43ft-12kHz.deg :                             
USDP-43ft-24kHz.deg :                             
USDP-43ft-48kHz.deg :                             
USDP-43ft-96kHz.deg :                             
USDA-83ft-2kHz.dB :                               
USDA-83ft-6kHz.dB :                               
USDA-83ft-12kHz.dB :                              
USDA-83ft-24kHz.dB :                              
USDA-83ft-48kHz.dB :                              
USDA-83ft-96kHz.dB :                              
USDA-43ft-2kHz.dB :                               
USDA-43ft-6kHz.dB :                               
USDA-43ft-12kHz.dB :                              
USDA-43ft-24kHz.dB :                              
USDA-43ft-48kHz.dB :                              
USDA-43ft-96kHz.dB :                              
UADP-83ft-2kHz.deg :                              
UADP-83ft-6kHz.deg :                              
UADP-83ft-12kHz.deg :                             
UADP-83ft-24kHz.deg :                             
UADP-83ft-48kHz.deg :                             
UADP-83ft-96kHz.deg :                             
UADP-43ft-2kHz.deg :                              
UADP-43ft-6kHz.deg :                              
UADP-43ft-12kHz.deg :                             
UADP-43ft-24kHz.deg :                             
UADP-43ft-48kHz.deg :                             
UADP-43ft-96kHz.deg :                             
UADA-83ft-2kHz.dB :                               
UADA-83ft-6kHz.dB :                               
UADA-83ft-12kHz.dB :                              
UADA-83ft-24kHz.dB :                              
UADA-83ft-48kHz.dB :                              
UADA-83ft-96kHz.dB :                              
UADA-43ft-2kHz.dB :                               
UADA-43ft-6kHz.dB :                               
UADA-43ft-12kHz.dB :                              
UADA-43ft-24kHz.dB :                              
UADA-43ft-48kHz.dB :                              
UADA-43ft-96kHz.dB :                              
UHRP-83ft-2kHz.deg :                              
UHRP-83ft-6kHz.deg :                              
UHRP-83ft-12kHz.deg :                             
UHRP-83ft-24kHz.deg :                             
UHRP-83ft-48kHz.deg :                             
UHRP-83ft-96kHz.deg :                             
UHRP-43ft-2kHz.deg :                              
UHRP-43ft-6kHz.deg :                              
UHRP-43ft-12kHz.deg :                             
UHRP-43ft-24kHz.deg :                             
UHRP-43ft-48kHz.deg :                             
UHRP-43ft-96kHz.deg :                             
UHRA-83ft-2kHz.dB :                               
UHRA-83ft-6kHz.dB :                               
UHRA-83ft-12kHz.dB :                              
UHRA-83ft-24kHz.dB :                              
UHRA-83ft-48kHz.dB :                              
UHRA-83ft-96kHz.dB :                              
UHRA-43ft-2kHz.dB :                               
UHRA-43ft-6kHz.dB :                               
UHRA-43ft-12kHz.dB :                              
UHRA-43ft-24kHz.dB :                              
UHRA-43ft-48kHz.dB :                              
UHRA-43ft-96kHz.dB :                              
UHAP-83ft-2kHz.deg :                              
UHAP-83ft-6kHz.deg :                              
UHAP-83ft-12kHz.deg :                             
UHAP-83ft-24kHz.deg :                             
UHAP-83ft-48kHz.deg :                             
UHAP-83ft-96kHz.deg :                             
UHAP-43ft-2kHz.deg :                              
UHAP-43ft-6kHz.deg :                              
UHAP-43ft-12kHz.deg :                             
UHAP-43ft-24kHz.deg :                             
UHAP-43ft-48kHz.deg :                             
UHAP-43ft-96kHz.deg :                             
UHAA-83ft-2kHz.dB :                               
UHAA-83ft-6kHz.dB :                               
UHAA-83ft-12kHz.dB :                              
UHAA-83ft-24kHz.dB :                              
UHAA-83ft-48kHz.dB :                              
UHAA-83ft-96kHz.dB :                              
UHAA-43ft-2kHz.dB :                               
UHAA-43ft-6kHz.dB :                               
UHAA-43ft-12kHz.dB :                              
UHAA-43ft-24kHz.dB :                              
UHAA-43ft-48kHz.dB :                              
UHAA-43ft-96kHz.dB :                              
~A
# ...
   1.2000000E+03   2.5886443E+01   3.1878740E+01   2.7889820E+01   2.8886731E+01   4.0184897E+01   5.9815969E+01   8.1014062E+00   1.6833481E+01   2.2186933E+01   2.4665076E+01   2.3430224E+01   1.7742729E+01   2.4060269E+00   6.5731968E+00   8.5857181E+00   9.6043987E+00   1.0905983E+01   1.3726062E+01   3.8577855E-01   1.5616252E+00   3.0707818E+00   5.0432127E+00   7.1531955E+00   9.3237048E+00  -1.1037723E+00  -3.1781373E+00  -5.7810205E+00  -1.0146069E+01  -1.7382649E+01  -2.9223134E+01  -6.9363272E-02  -6.3928157E-01  -1.4513614E+00  -2.7520662E+00  -4.4694261E+00  -6.2496078E+00   7.6255674E-02   4.3821378E-03  -1.1338312E-01  -3.4808009E-01  -7.6596087E-01  -1.4119580E+00   4.4280965E-02   5.9697337E-02   3.9607141E-02  -5.1435679E-02  -2.7255420E-01  -6.8637687E-01  -2.3455264E+01  -2.1122050E+01  -2.1992384E+01  -2.6142360E+01  -3.1337950E+01  -3.6911057E+01  -1.3311631E+01  -1.8653925E+01  -2.0909118E+01  -2.3216926E+01  -2.6783467E+01  -3.1879184E+01   4.7078058E-01  -1.9458018E+00  -3.0482953E+00  -4.4124057E+00  -6.2552443E+00  -8.4340675E+00   4.4332112E+00   2.6122306E+00   1.2442818E+00  -1.5782744E-01  -1.6789521E+00  -3.5505034E+00   2.1012060E+01   2.7325911E+01   2.5409559E+01   1.6055183E+01   1.5336678E+00  -1.2153982E+01   3.8877881E+00   7.9634633E+00   9.6270544E+00   9.0747140E+00   5.5037732E+00  -3.1073968E-01   2.1264508E+00   5.2999260E+00   7.7812373E+00   9.8931741E+00   1.0725924E+01   9.9958897E+00   3.9128459E-02   6.9552913E-01   1.4668098E+00   2.3911615E+00   3.1802474E+00   3.4777474E+00
   1.2050000E+03   2.4434504E+01   3.0353550E+01   2.6832058E+01   2.7915655E+01   3.8668165E+01   5.7165439E+01   7.5675294E+00   1.5702080E+01   2.0678507E+01   2.2937055E+01   2.1528230E+01   1.5317231E+01   2.2577401E+00   6.1869050E+00   8.1181395E+00   9.1362092E+00   1.0450323E+01   1.3319301E+01   3.6196299E-01   1.4617745E+00   2.8732539E+00   4.7265863E+00   6.7307501E+00   8.8051640E+00  -1.1228144E+00  -3.1998607E+00  -5.8017255E+00  -1.0187178E+01  -1.7477870E+01  -2.9463387E+01  -7.9942428E-02  -6.5849834E-01  -1.4719611E+00  -2.7592583E+00  -4.4310755E+00  -6.0887818E+00   7.4475031E-02  -3.9602628E-04  -1.1903419E-01  -3.5557777E-01  -7.8501274E-01  -1.4778245E+00   4.3569292E-02   5.7176299E-02   3.4479830E-02  -6.0428117E-02  -2.8632336E-01  -7.0389222E-01  -2.3649315E+01  -2.1543520E+01  -2.2460678E+01  -2.6604778E+01  -3.1831105E+01  -3.7423792E+01  -1.3293324E+01  -1.8703181E+01  -2.1052362E+01  -2.3442809E+01  -2.6991256E+01  -3.1915324E+01   4.7132983E-01  -1.9824003E+00  -3.1232848E+00  -4.5198078E+00  -6.3938642E+00  -8.6183423E+00   4.4392724E+00   2.6235812E+00   1.2505557E+00  -1.7043546E-01  -1.7204550E+00  -3.6150873E+00   2.0866221E+01   2.6997449E+01   2.4942927E+01   1.5555171E+01   1.0854110E+00  -1.2557546E+01   3.8395978E+00   7.8349329E+00   9.4146611E+00   8.7675243E+00   5.1291432E+00  -6.7663055E-01   2.1155305E+00   5.2711093E+00   7.7205241E+00   9.7884546E+00   1.0585070E+01   9.8242293E+00   3.9010593E-02   6.9042197E-01   1.4522940E+00   2.3580200E+00   3.1179603E+00   3.3782630E+00
   1.2100000E+03   2.2973741E+01   2.8758119E+01   2.5649570E+01   2.6773221E+01   3.6910368E+01   5.4119424E+01   7.0496389E+00   1.4604753E+01   1.9207847E+01   2.1232496E+01   1.9629447E+01   1.2908879E+01   2.1115761E+00   5.8025630E+00   7.6461554E+00   8.6547283E+00   9.9731965E+00   1.2881480E+01   3.3872517E-01   1.3653286E+00   2.6829084E+00   4.4203740E+00   6.3177569E+00   8.2895106E+00  -1.1450575E+00  -3.2196544E+00  -5.8096533E+00  -1.0201209E+01  -1.7532380E+01  -2.9642999E+01  -9.0739599E-02  -6.7846736E-01  -1.4926652E+00  -2.7683949E+00  -4.4019916E+00  -5.9522036E+00   7.2349328E-02  -6.4031756E-03  -1.2603647E-01  -3.6340864E-01  -8.0281802E-01  -1.5441684E+00   4.3021563E-02   5.4631793E-02   2.9434468E-02  -6.8893222E-02  -2.9907478E-01  -7.1991215E-01  -2.3819979E+01  -2.1928189E+01  -2.2902325E+01  -2.7044284E+01  -3.2299033E+01  -3.7905673E+01  -1.3280050E+01  -1.8749214E+01  -2.1180749E+01  -2.3643217E+01  -2.7170974E+01  -3.1927760E+01   4.6965304E-01  -2.0155189E+00  -3.1923479E+00  -4.6203770E+00  -6.5246054E+00  -8.7938017E+00   4.4445396E+00   2.6330175E+00   1.2553356E+00  -1.8269251E-01  -1.7588686E+00  -3.6742534E+00   2.0718050E+01   2.6684176E+01   2.4512471E+01   1.5092825E+01   6.6551956E-01  -1.2940167E+01   3.7982331E+00   7.7175572E+00   9.2162383E+00   8.4798320E+00   4.7808392E+00  -1.0122433E+00   2.1081636E+00   5.2437412E+00   7.6639071E+00   9.6920612E+00   1.0455161E+01   9.6650143E+00   3.8615149E-02   6.8621391E-01   1.4392969E+00   2.3273337E+00   3.0597265E+00   3.2853184E+00
   1.2150000E+03   2.1502732E+01   2.7096144E+01   2.4346057E+01   2.5462097E+01   3.4910621E+01   5.0671652E+01   6.5332295E+00   1.3506897E+01   1.7727950E+01   1.9500014E+01   1.7685779E+01   1.0475050E+01   1.9676607E+00   5.4203073E+00   7.1703665E+00   8.1608003E+00   9.4750946E+00   1.2410332E+01   3.1568883E-01   1.2697706E+00   2.4939684E+00   4.1146175E+00   5.9004541E+00   7.7601716E+00  -1.1645256E+00  -3.2362128E+00  -5.8188259E+00  -1.0220612E+01  -1.7592535E+01  -2.9814359E+01  -1.0180434E-01  -6.9849961E-01  -1.5136129E+00  -2.7775034E+00  -4.3714688E+00  -5.8139928E+00   7.0260489E-02  -1.1477949E-02  -1.3188096E-01  -3.7059388E-01  -8.2125915E-01  -1.6152219E+00   4.2324931E-02   5.1944509E-02   2.4240433E-02  -7.7542410E-02  -3.1180720E-01  -7.3448757E-01  -2.3976104E+01  -2.2290546E+01  -2.3320329E+01  -2.7467491E+01  -3.2753877E+01  -3.8370704E+01  -1.3265310E+01  -1.8788421E+01  -2.1296428E+01  -2.3823676E+01  -2.7326947E+01  -3.1916084E+01   4.6986877E-01  -2.0449270E+00  -3.2553647E+00  -4.7133716E+00  -6.6475570E+00  -8.9618027E+00   4.4494102E+00   2.6422230E+00   1.2603278E+00  -1.9351028E-01  -1.7939211E+00  -3.7279206E+00   2.0577875E+01   2.6392832E+01   2.4110821E+01   1.4663939E+01   2.7466578E-01  -1.3301870E+01   3.7580058E+00   7.6059855E+00   9.0298511E+00   8.2083296E+00   4.4495598E+00  -1.3350381E+00   2.0999705E+00   5.2175031E+00   7.6102019E+00   9.6013999E+00   1.0333761E+01   9.5163502E+00   3.8553677E-02   6.8213030E-01   1.4270444E+00   2.2986252E+00   3.0050356E+00   3.1971793E+00
   1.2200000E+03   2.0018056E+01   2.5366994E+01   2.2922825E+01   2.3977890E+01   3.2650695E+01   4.6773495E+01   6.0273331E+00   1.2434101E+01   1.6279030E+01   1.7792232E+01   1.5757962E+01   8.0857689E+00   1.8249062E+00   5.0386893E+00   6.6898578E+00   7.6543589E+00   8.9564113E+00   1.1906129E+01   2.9291539E-01   1.1762018E+00   2.3097002E+00   3.8160795E+00   5.4897438E+00   7.2326870E+00  -1.1795523E+00  -3.2406556E+00  -5.8088051E+00  -1.0211950E+01  -1.7610173E+01  -2.9907873E+01  -1.1060642E-01  -7.1399172E-01  -1.5292462E+00  -2.7823037E+00  -4.3398075E+00  -5.6822009E+00   6.8260040E-02  -1.6199239E-02  -1.3649216E-01  -3.7545568E-01  -8.3620319E-01  -1.6837482E+00   4.1773891E-02   4.9777378E-02   2.0055159E-02  -8.4579188E-02  -3.2226918E-01  -7.4561950E-01  -2.4133306E+01  -2.2638011E+01  -2.3716774E+01  -2.7866470E+01  -3.3180264E+01  -3.8802968E+01  -1.3251099E+01  -1.8822966E+01  -2.1398993E+01  -2.3982324E+01  -2.7458189E+01  -3.1885402E+01   4.6996257E-01  -2.0742305E+00  -3.3165202E+00  -4.8029230E+00  -6.7655220E+00  -9.1234089E+00   4.4540755E+00   2.6507864E+00   1.2650407E+00  -2.0311163E-01  -1.8253313E+00  -3.7755375E+00   2.0456151E+01   2.6122357E+01   2.3732865E+01   1.4257947E+01  -9.8506932E-02  -1.3648530E+01   3.7217084E+00   7.5057881E+00   8.8605865E+00   7.9600252E+00   4.1452384E+00  -1.6303708E+00   2.0915231E+00   5.1934865E+00   7.5602564E+00   9.5165982E+00   1.0219634E+01   9.3757457E+00   3.8249802E-02   6.7840737E-01   1.4160419E+00   2.2726339E+00   2.9550798E+00   3.1160225E+00
   1.2250000E+03   1.8534932E+01   2.3597542E+01   2.1416902E+01   2.2373768E+01   3.0215352E+01   4.2566257E+01   5.5257642E+00   1.1366429E+01   1.4828148E+01   1.6066705E+01   1.3800188E+01   5.6927180E+00   1.6844251E+00   4.6605952E+00   6.2090749E+00   7.1412581E+00   8.4241582E+00   1.1374988E+01   2.7046647E-01   1.0840710E+00   2.1277645E+00   3.5193499E+00   5.0768720E+00   6.6953435E+00  -1.1900586E+00  -3.2516188E+00  -5.8172992E+00  -1.0231934E+01  -1.7667098E+01  -3.0038588E+01  -1.1833643E-01  -7.2767909E-01  -1.5446689E+00  -2.7909060E+00  -4.3184839E+00  -5.5741120E+00   6.7100411E-02  -1.9070052E-02  -1.4001227E-01  -3.8071516E-01  -8.5332350E-01  -1.7580080E+00   4.1222667E-02   4.7943765E-02   1.6540363E-02  -9.0734508E-02  -3.3175196E-01  -7.5548399E-01  -2.4270225E+01  -2.2952292E+01  -2.4083384E+01  -2.8239901E+01  -3.3579873E+01  -3.9197915E+01  -1.3234856E+01  -1.8849608E+01  -2.1488969E+01  -2.4126080E+01  -2.7574574E+01  -3.1838611E+01   4.6954421E-01  -2.0998631E+00  -3.3713881E+00  -4.8846108E+00  -6.8747861E+00  -9.2755503E+00   4.4584699E+00   2.6593644E+00   1.2705529E+00  -2.1070094E-01  -1.8536221E+00  -3.8189118E+00   2.0334442E+01   2.5865694E+01   2.3382015E+01   1.3881941E+01  -4.4606680E-01  -1.3975837E+01   3.6881057E+00   7.4076362E+00   8.6969996E+00   7.7253220E+00   3.8601579E+00  -1.9074646E+00   2.0850045E+00   5.1705734E+00   7.5133220E+00   9.4377508E+00   1.0113798E+01   9.2453129E+00   3.8464621E-02   6.7522490E-01   1.4053842E+00   2.2474925E+00   2.9075957E+00   3.0389858E+00
