~V
VERS. 2.0 : CWLS LOG ASCII STANDARD -VERSION 2.0
WRAP. NO : ONE LINE PER DEPTH STEP
~W
STRT.FT 0.0000 :START DEPTH                       
STOP.FT 1400.0000 :STOP DEPTH                     
STEP.FT 5.0000 :STEP                              
NULL. -999.25 :NULL VALUE
FLD.  :FIELD
PROV.  :PROVINCE
COMP.  :COMPANY
DATE.  :DATE
LOC.  :LOCATION
SRVC.  :SERVICE COMPANY
UWI.  :UNIQUE WELL ID
WELL. Well1 :WELL
~C
DEPTH.FT  :DEPTH
USDP-83ft-2kHz.deg :                              
USDP-83ft-6kHz.deg :                              
USDP-83ft-12kHz.deg :                             
USDP-83ft-24kHz.deg :                             
USDP-83ft-48kHz.deg :                             
USDP-83ft-96kHz.deg :                             
USDP-43ft-2kHz.deg :                              
USDP-43ft-6kHz.deg :                              
USDP-43ft-12kHz.deg :                             
USDP-43ft-24kHz.deg :                             
USDP-43ft-48kHz.deg :                             
USDP-43ft-96kHz.deg :                             
USDA-83ft-2kHz.dB :                               
USDA-83ft-6kHz.dB :                               
USDA-83ft-12kHz.dB :                              
USDA-83ft-24kHz.dB :                              
USDA-83ft-48kHz.dB :                              
USDA-83ft-96kHz.dB :                              
USDA-43ft-2kHz.dB :                               
USDA-43ft-6kHz.dB :                               
USDA-43ft-12kHz.dB :                              
USDA-43ft-24kHz.dB :                              
USDA-43ft-48kHz.dB :                              
USDA-43ft-96kHz.dB :                              
UADP-83ft-2kHz.deg :                              
UADP-83ft-6kHz.deg :                              
UADP-83ft-12kHz.deg :                             
UADP-83ft-24kHz.deg :                             
UADP-83ft-48kHz.deg :                             
UADP-83ft-96kHz.deg :                             
UADP-43ft-2kHz.deg :                              
UADP-43ft-6kHz.deg :                              
UADP-43ft-12kHz.deg :                             
UADP-43ft-24kHz.deg :                             
UADP-43ft-48kHz.deg :                             
UADP-43ft-96kHz.deg :                             
UADA-83ft-2kHz.dB :                               
UADA-83ft-6kHz.dB :                               
UADA-83ft-12kHz.dB :                              
UADA-83ft-24kHz.dB :                              
UADA-83ft-48kHz.dB :                              
UADA-83ft-96kHz.dB :                              
UADA-43ft-2kHz.dB :                               
UADA-43ft-6kHz.dB :                               
UADA-43ft-12kHz.dB :                              
UADA-43ft-24kHz.dB :                              
UADA-43ft-48kHz.dB :                              
UADA-43ft-96kHz.dB :                              
UHRP-83ft-2kHz.deg :                              
UHRP-83ft-6kHz.deg :                              
UHRP-83ft-12kHz.deg :                             
UHRP-83ft-24kHz.deg :                             
UHRP-83ft-48kHz.deg :                             
UHRP-83ft-96kHz.deg :                             
UHRP-43ft-2kHz.deg :                              
UHRP-43ft-6kHz.deg :                              
UHRP-43ft-12kHz.deg :                             
UHRP-43ft-24kHz.deg :                             
UHRP-43ft-48kHz.deg :                             
UHRP-43ft-96kHz.deg :                             
UHRA-83ft-2kHz.dB :                               
UHRA-83ft-6kHz.dB :                               
UHRA-83ft-12kHz.dB :                              
UHRA-83ft-24kHz.dB :                              
UHRA-83ft-48kHz.dB :                              
UHRA-83ft-96kHz.dB :                              
UHRA-43ft-2kHz.dB :                               
UHRA-43ft-6kHz.dB :                               
UHRA-43ft-12kHz.dB :                              
UHRA-43ft-24kHz.dB :                              
UHRA-43ft-48kHz.dB :                              
UHRA-43ft-96kHz.dB :                              
UHAP-83ft-2kHz.deg :                              
UHAP-83ft-6kHz.deg :                              
UHAP-83ft-12kHz.deg :                             
UHAP-83ft-24kHz.deg :                             
UHAP-83ft-48kHz.deg :                             
UHAP-83ft-96kHz.deg :                             
UHAP-43ft-2kHz.deg :                              
UHAP-43ft-6kHz.deg :                              
UHAP-43ft-12kHz.deg :                             
UHAP-43ft-24kHz.deg :                             
UHAP-43ft-48kHz.deg :                             
UHAP-43ft-96kHz.deg :                             
UHAA-83ft-2kHz.dB :                               
UHAA-83ft-6kHz.dB :                               
UHAA-83ft-12kHz.dB :                              
UHAA-83ft-24kHz.dB :                              
UHAA-83ft-48kHz.dB :                              
UHAA-83ft-96kHz.dB :                              
UHAA-43ft-2kHz.dB :                               
UHAA-43ft-6kHz.dB :                               
UHAA-43ft-12kHz.dB :                              
UHAA-43ft-24kHz.dB :                              
UHAA-43ft-48kHz.dB :                              
UHAA-43ft-96kHz.dB :                              
~A
# ...
   4.4999999E+02  -3.8052610E+01  -4.6150913E+01  -4.2512208E+01  -4.4202203E+01  -5.6420343E+01  -7.7976030E+01  -1.0015387E+01  -1.9275538E+01  -2.4007860E+01  -2.5290923E+01  -2.2943374E+01  -1.6993611E+01  -3.8666191E+00  -9.6787048E+00  -1.2660082E+01  -1.4615429E+01  -1.6819474E+01  -2.0135398E+01  -5.7021821E-01  -2.0749695E+00  -3.8042210E+00  -5.8809727E+00  -7.9345082E+00  -9.8855352E+00  -3.7289718E-01  -2.6278158E+00  -5.3583982E+00  -9.1285525E+00  -1.4340131E+01  -2.2069657E+01   1.1636138E-01  -2.1152565E-01  -7.7332109E-01  -1.7029488E+00  -2.9012790E+00  -4.0274447E+00   1.4066542E-01   1.5989798E-01   2.6514474E-02  -2.8598875E-01  -7.5950923E-01  -1.2906736E+00   4.3522193E-02   7.8614756E-02   8.3790621E-02   3.4720663E-02  -1.1450912E-01  -4.1337792E-01  -1.8465141E+01  -1.6066252E+01  -1.7477477E+01  -2.2127033E+01  -2.8527906E+01  -3.6811986E+01  -1.0533621E+01  -1.5026910E+01  -1.7603641E+01  -2.1081878E+01  -2.6589268E+01  -3.3473489E+01   1.3215939E+00  -4.3998099E-01  -1.2009457E+00  -2.2461338E+00  -3.7383806E+00  -5.7700192E+00   4.7422649E+00   3.3530953E+00   2.3065985E+00   1.1746531E+00  -2.3074925E-01  -2.2539777E+00   1.5653392E+01   2.0503554E+01   1.8585396E+01   1.0634841E+01  -6.1445654E-01  -9.9931088E+00   2.3353535E+00   5.3769823E+00   7.1588119E+00   7.3453667E+00   4.9177969E+00   1.5179949E-01   1.5957409E+00   4.0061906E+00   5.9058901E+00   7.4229992E+00   7.8414177E+00   7.1488079E+00  -1.0279001E-02   3.5634652E-01   8.8517285E-01   1.6124046E+00   2.3032813E+00   2.6388041E+00
   4.5499999E+02  -3.9038071E+01  -4.6729214E+01  -4.2389706E+01  -4.3734381E+01  -5.5989258E+01  -7.7895974E+01  -1.0416889E+01  -2.0086224E+01  -2.5034465E+01  -2.6407805E+01  -2.4173584E+01  -1.8671097E+01  -3.9935224E+00  -9.9722559E+00  -1.2961124E+01  -1.4847861E+01  -1.6962052E+01  -2.0132041E+01  -5.8977571E-01  -2.1544970E+00  -3.9546769E+00  -6.1090624E+00  -8.2235807E+00  -1.0240591E+01  -3.4297042E-01  -2.6252674E+00  -5.3815596E+00  -9.1686225E+00  -1.4405045E+01  -2.2180625E+01   1.3244112E-01  -1.9397029E-01  -7.6608348E-01  -1.7276542E+00  -2.9951311E+00  -4.2612787E+00   1.4228944E-01   1.6613398E-01   3.2689735E-02  -2.7938566E-01  -7.4377391E-01  -1.2429190E+00   4.4682083E-02   8.2802044E-02   9.0822174E-02   4.4710929E-02  -1.0265693E-01  -4.0404740E-01  -1.8289342E+01  -1.5531832E+01  -1.6904251E+01  -2.1699529E+01  -2.8236097E+01  -3.6682328E+01  -1.0585446E+01  -1.5023700E+01  -1.7525698E+01  -2.0960050E+01  -2.6519599E+01  -3.3567980E+01   1.3087521E+00  -4.0978990E-01  -1.1114678E+00  -2.1133694E+00  -3.5808363E+00  -5.5913868E+00   4.7318379E+00   3.3338755E+00   2.2904045E+00   1.1724203E+00  -2.1479791E-01  -2.2299584E+00   1.5909708E+01   2.0858242E+01   1.9070894E+01   1.1204851E+01  -1.0236849E-01  -9.5850623E+00   2.3854154E+00   5.5133671E+00   7.3969612E+00   7.7027551E+00   5.3386849E+00   5.1888491E-01   1.6200541E+00   4.0595636E+00   5.9856854E+00   7.5499475E+00   8.0155776E+00   7.3598943E+00  -9.4398912E-03   3.6136530E-01   8.9966275E-01   1.6492893E+00   2.3763095E+00   2.7534975E+00
   4.5999999E+02  -4.0011416E+01  -4.7253220E+01  -4.2171400E+01  -4.3144036E+01  -5.5417361E+01  -7.7613644E+01  -1.0830369E+01  -2.0919178E+01  -2.6081734E+01  -2.7533423E+01  -2.5401531E+01  -2.0364934E+01  -4.1216262E+00  -1.0266055E+01  -1.3257427E+01  -1.5067326E+01  -1.7086155E+01  -2.0111443E+01  -6.0986320E-01  -2.2368782E+00  -4.1103330E+00  -6.3436866E+00  -8.5173309E+00  -1.0594278E+01  -3.0556530E-01  -2.6238086E+00  -5.4102097E+00  -9.2155385E+00  -1.4475595E+01  -2.2285115E+01   1.4937075E-01  -1.7289650E-01  -7.5323980E-01  -1.7459025E+00  -3.0846019E+00  -4.4985650E+00   1.4522778E-01   1.7455984E-01   4.0459809E-02  -2.7212680E-01  -7.2944215E-01  -1.2010845E+00   4.5899876E-02   8.7116683E-02   9.8376692E-02   5.5890518E-02  -8.8680233E-02  -3.9156243E-01  -1.8093827E+01  -1.5002719E+01  -1.6329529E+01  -2.1252353E+01  -2.7934548E+01  -3.6534251E+01  -1.0645803E+01  -1.5014499E+01  -1.7433913E+01  -2.0821847E+01  -2.6430309E+01  -3.3639426E+01   1.2974845E+00  -3.7671187E-01  -1.0217847E+00  -1.9784054E+00  -3.4196010E+00  -5.4100902E+00   4.7213061E+00   3.3131212E+00   2.2739730E+00   1.1711691E+00  -1.9663279E-01  -2.2018938E+00   1.6159826E+01   2.1254733E+01   1.9593126E+01   1.1788593E+01   4.3096037E-01  -9.1598260E+00   2.4484153E+00   5.6523171E+00   7.6395858E+00   8.0751376E+00   5.7776311E+00   9.0113891E-01   1.6415723E+00   4.1123371E+00   6.0710488E+00   7.6830947E+00   8.1960300E+00   7.5794801E+00  -9.2182749E-03   3.6767110E-01   9.1434979E-01   1.6870941E+00   2.4520978E+00   2.8724260E+00
   4.6499999E+02  -4.0998959E+01  -4.7730118E+01  -4.1833999E+01  -4.2409617E+01  -5.4682038E+01  -7.7106542E+01  -1.1255865E+01  -2.1778475E+01  -2.7160316E+01  -2.8688471E+01  -2.6665875E+01  -2.2146459E+01  -4.2533375E+00  -1.0568545E+01  -1.3555189E+01  -1.5276958E+01  -1.7194160E+01  -2.0074236E+01  -6.3027110E-01  -2.3215688E+00  -4.2707340E+00  -6.5847395E+00  -8.8163389E+00  -1.0949045E+01  -2.5132950E-01  -2.6081689E+00  -5.4299579E+00  -9.2517014E+00  -1.4528352E+01  -2.2358447E+01   1.6584916E-01  -1.5678613E-01  -7.4918040E-01  -1.7776403E+00  -3.1920710E+00  -4.7592780E+00   1.4805656E-01   1.8625238E-01   5.1684844E-02  -2.6172097E-01  -7.1281464E-01  -1.1608641E+00   4.6919585E-02   9.1302303E-02   1.0543691E-01   6.5924839E-02  -7.6782010E-02  -3.8159521E-01  -1.7902513E+01  -1.4452039E+01  -1.5718223E+01  -2.0785967E+01  -2.7625044E+01  -3.6366461E+01  -1.0703340E+01  -1.4996090E+01  -1.7323054E+01  -2.0658575E+01  -2.6316884E+01  -3.3692917E+01   1.2859752E+00  -3.4453207E-01  -9.2890034E-01  -1.8366520E+00  -3.2527599E+00  -5.2235740E+00   4.7106250E+00   3.2922264E+00   2.2582758E+00   1.1728320E+00  -1.7322375E-01  -2.1662390E+00   1.6430796E+01   2.1668552E+01   2.0126709E+01   1.2400988E+01   1.0001405E+00  -8.7082248E+00   2.5170898E+00   5.8045195E+00   7.8966365E+00   8.4673169E+00   6.2413697E+00   1.3093045E+00   1.6646011E+00   4.1703324E+00   6.1611085E+00   7.8213957E+00   8.3856232E+00   7.8107689E+00  -8.7565860E-03   3.7538349E-01   9.3137150E-01   1.7280386E+00   2.5329182E+00   2.9980424E+00
   4.6999999E+02  -4.1968180E+01  -4.8153101E+01  -4.1391123E+01  -4.1557589E+01  -5.3829445E+01  -7.6432792E+01  -1.1693695E+01  -2.2659182E+01  -2.8255896E+01  -2.9841626E+01  -2.7908314E+01  -2.3910942E+01  -4.3825555E+00  -1.0869513E+01  -1.3844976E+01  -1.5468881E+01  -1.7281030E+01  -2.0022335E+01  -6.5141818E-01  -2.4093807E+00  -4.4368559E+00  -6.8326788E+00  -9.1195447E+00  -1.1299982E+01  -1.9007240E-01  -2.5970790E+00  -5.4610495E+00  -9.2951253E+00  -1.4581395E+01  -2.2426228E+01   1.8201168E-01  -1.4007363E-01  -7.4149183E-01  -1.8028238E+00  -3.2913825E+00  -5.0135055E+00   1.4852479E-01   1.9732165E-01   6.0676506E-02  -2.5513073E-01  -7.0167269E-01  -1.1297089E+00   4.7993589E-02   9.5363121E-02   1.1239372E-01   7.6336187E-02  -6.3656750E-02  -3.6885775E-01  -1.7720996E+01  -1.3907433E+01  -1.5098646E+01  -2.0307732E+01  -2.7320486E+01  -3.6190688E+01  -1.0756859E+01  -1.4973646E+01  -1.7201413E+01  -2.0476064E+01  -2.6179346E+01  -3.3714832E+01   1.2757739E+00  -3.1365055E-01  -8.3743194E-01  -1.6936833E+00  -3.0850406E+00  -5.0390554E+00   4.6985025E+00   3.2705667E+00   2.2416331E+00   1.1748210E+00  -1.4797370E-01  -2.1265706E+00   1.6720302E+01   2.2106188E+01   2.0672599E+01   1.3015384E+01   1.5811728E+00  -8.2487486E+00   2.5771594E+00   5.9615240E+00   8.1645915E+00   8.8742348E+00   6.7246901E+00   1.7357333E+00   1.6861296E+00   4.2309238E+00   6.2558470E+00   7.9634840E+00   8.5790658E+00   8.0475598E+00  -7.2636655E-03   3.8235967E-01   9.4887503E-01   1.7701606E+00   2.6164826E+00   3.1279609E+00
   4.7499999E+02  -4.2929685E+01  -4.8503862E+01  -4.0828044E+01  -4.0577580E+01  -5.2840441E+01  -7.5578020E+01  -1.2142851E+01  -2.3563964E+01  -2.9374760E+01  -3.1005390E+01  -2.9152651E+01  -2.5702231E+01  -4.5141023E+00  -1.1172532E+01  -1.4127830E+01  -1.5644200E+01  -1.7346788E+01  -1.9952656E+01  -6.7282967E-01  -2.4997288E+00  -4.6081513E+00  -7.0871453E+00  -9.4269813E+00  -1.1648497E+01  -1.3501786E-01  -2.5906995E+00  -5.4965182E+00  -9.3355445E+00  -1.4627126E+01  -2.2475701E+01   2.0375737E-01  -1.1623920E-01  -7.2727627E-01  -1.8218492E+00  -3.3832593E+00  -5.2556720E+00   1.4954228E-01   2.0906977E-01   6.9169279E-02  -2.4955242E-01  -6.9250811E-01  -1.1048170E+00   4.9058780E-02   1.0051692E-01   1.2090971E-01   8.8694287E-02  -4.8217760E-02  -3.5230208E-01  -1.7530851E+01  -1.3343450E+01  -1.4460752E+01  -1.9809168E+01  -2.7006914E+01  -3.6007249E+01  -1.0809970E+01  -1.4942174E+01  -1.7058966E+01  -2.0266139E+01  -2.6016186E+01  -3.3712393E+01   1.2637250E+00  -2.8221263E-01  -7.4399830E-01  -1.5471119E+00  -2.9121543E+00  -4.8512456E+00   4.6865723E+00   3.2485534E+00   2.2256649E+00   1.1799283E+00  -1.1734903E-01  -2.0796012E+00   1.7019712E+01   2.2560148E+01   2.1240001E+01   1.3644139E+01   2.1822656E+00  -7.7663205E+00   2.6461006E+00   6.1322297E+00   8.4454672E+00   9.2995537E+00   7.2330220E+00   2.1841495E+00   1.7087298E+00   4.2935250E+00   6.3545129E+00   8.1109814E+00   8.7779163E+00   8.2924208E+00  -6.0501897E-03   3.9096122E-01   9.6868071E-01   1.8151274E+00   2.7049381E+00   3.2647454E+00
