~V
VERS. 2.0 : CWLS LOG ASCII STANDARD -VERSION 2.0
WRAP. NO : ONE LINE PER DEPTH STEP
~W
STRT.FT 0.0000 :START DEPTH                       
STOP.FT 1400.0000 :STOP DEPTH                     
STEP.FT 5.0000 :STEP                              
NULL. -999.25 :NULL VALUE
FLD.  :FIELD
PROV.  :PROVINCE
COMP.  :COMPANY
DATE.  :DATE
LOC.  :LOCATION
SRVC.  :SERVICE COMPANY
UWI.  :UNIQUE WELL ID
WELL. Well1 :WELL
~C
DEPTH.FT  :DEPTH
USDP-83ft-2kHz.deg :                              
USDP-83ft-6kHz.deg :                              
USDP-83ft-12kHz.deg :                             
USDP-83ft-24kHz.deg :                             
USDP-83ft-48kHz.deg :                             
USDP-83ft-96kHz.deg :                             
USDP-43ft-2kHz.deg :                              
USDP-43ft-6kHz.deg :                              
USDP-43ft-12kHz.deg :                             
USDP-43ft-24kHz.deg :                             
USDP-43ft-48kHz.deg :                             
USDP-43ft-96kHz.deg :                             
USDA-83ft-2kHz.dB :                               
USDA-83ft-6kHz.dB :                               
USDA-83ft-12kHz.dB :                              
USDA-83ft-24kHz.dB :                              
USDA-83ft-48kHz.dB :                              
USDA-83ft-96kHz.dB :                              
USDA-43ft-2kHz.dB :                               
USDA-43ft-6kHz.dB :                               
USDA-43ft-12kHz.dB :                              
USDA-43ft-24kHz.dB :                              
USDA-43ft-48kHz.dB :                              
USDA-43ft-96kHz.dB :                              
UADP-83ft-2kHz.deg :                              
UADP-83ft-6kHz.deg :                              
UADP-83ft-12kHz.deg :                             
UADP-83ft-24kHz.deg :                             
UADP-83ft-48kHz.deg :                             
UADP-83ft-96kHz.deg :                             
UADP-43ft-2kHz.deg :                              
UADP-43ft-6kHz.deg :                              
UADP-43ft-12kHz.deg :                             
UADP-43ft-24kHz.deg :                             
UADP-43ft-48kHz.deg :                             
UADP-43ft-96kHz.deg :                             
UADA-83ft-2kHz.dB :                               
UADA-83ft-6kHz.dB :                               
UADA-83ft-12kHz.dB :                              
UADA-83ft-24kHz.dB :                              
UADA-83ft-48kHz.dB :                              
UADA-83ft-96kHz.dB :                              
UADA-43ft-2kHz.dB :                               
UADA-43ft-6kHz.dB :                               
UADA-43ft-12kHz.dB :                              
UADA-43ft-24kHz.dB :                              
UADA-43ft-48kHz.dB :                              
UADA-43ft-96kHz.dB :                              
UHRP-83ft-2kHz.deg :                              
UHRP-83ft-6kHz.deg :                              
UHRP-83ft-12kHz.deg :                             
UHRP-83ft-24kHz.deg :                             
UHRP-83ft-48kHz.deg :                             
UHRP-83ft-96kHz.deg :                             
UHRP-43ft-2kHz.deg :                              
UHRP-43ft-6kHz.deg :                              
UHRP-43ft-12kHz.deg :                             
UHRP-43ft-24kHz.deg :                             
UHRP-43ft-48kHz.deg :                             
UHRP-43ft-96kHz.deg :                             
UHRA-83ft-2kHz.dB :                               
UHRA-83ft-6kHz.dB :                               
UHRA-83ft-12kHz.dB :                              
UHRA-83ft-24kHz.dB :                              
UHRA-83ft-48kHz.dB :                              
UHRA-83ft-96kHz.dB :                              
UHRA-43ft-2kHz.dB :                               
UHRA-43ft-6kHz.dB :                               
UHRA-43ft-12kHz.dB :                              
UHRA-43ft-24kHz.dB :                              
UHRA-43ft-48kHz.dB :                              
UHRA-43ft-96kHz.dB :                              
UHAP-83ft-2kHz.deg :                              
UHAP-83ft-6kHz.deg :                              
UHAP-83ft-12kHz.deg :                             
UHAP-83ft-24kHz.deg :                             
UHAP-83ft-48kHz.deg :                             
UHAP-83ft-96kHz.deg :                             
UHAP-43ft-2kHz.deg :                              
UHAP-43ft-6kHz.deg :                              
UHAP-43ft-12kHz.deg :                             
UHAP-43ft-24kHz.deg :                             
UHAP-43ft-48kHz.deg :                             
UHAP-43ft-96kHz.deg :                             
UHAA-83ft-2kHz.dB :                               
UHAA-83ft-6kHz.dB :                               
UHAA-83ft-12kHz.dB :                              
UHAA-83ft-24kHz.dB :                              
UHAA-83ft-48kHz.dB :                              
UHAA-83ft-96kHz.dB :                              
UHAA-43ft-2kHz.dB :                               
UHAA-43ft-6kHz.dB :                               
UHAA-43ft-12kHz.dB :                              
UHAA-43ft-24kHz.dB :                              
UHAA-43ft-48kHz.dB :                              
UHAA-43ft-96kHz.dB :                              
~A
# ...
   5.3999999E+02  -5.3782345E+01  -5.2074213E+01  -2.9224079E+01  -2.0463301E+01  -2.8943090E+01  -4.7363666E+01  -1.9147252E+01  -3.7836301E+01  -4.5538668E+01  -4.3917617E+01  -3.8844325E+01  -4.0791619E+01  -5.6922888E+00  -1.4735233E+01  -1.7455437E+01  -1.7239288E+01  -1.7279231E+01  -1.8145087E+01  -9.6788601E-01  -3.9840624E+00  -7.5380087E+00  -1.1264122E+01  -1.3806683E+01  -1.5535375E+01   1.2485681E+00   2.3122881E+00  -1.5090201E+00  -7.5619788E+00  -1.5262043E+01  -2.5552769E+01   6.7473400E-01   8.7381333E-01  -1.9349574E-01  -2.3458180E+00  -5.2942225E+00  -8.8103248E+00   4.2787506E-02   5.5794023E-01   9.8646317E-01   9.1238906E-01   5.1219535E-01  -1.9280697E-01   3.8426601E-02   2.2982464E-01   3.7729405E-01   4.0630059E-01   2.4207867E-01  -1.0387770E-01  -1.6870639E+01  -9.0099404E+00  -8.3966475E+00  -1.2556850E+01  -1.8499347E+01  -2.7267368E+01  -1.1750189E+01  -1.4053516E+01  -1.3223940E+01  -1.3903297E+01  -1.9772361E+01  -2.9933644E+01   1.0271017E+00  -3.1767387E-01  -3.5352988E-01  -6.8517924E-01  -1.4683973E+00  -2.6640007E+00   4.4993200E+00   2.8199187E+00   1.9005917E+00   1.3717849E+00   7.8849293E-01  -6.6572340E-01   2.1978625E+01   3.1670940E+01   3.2536709E+01   2.4287225E+01   1.0807447E+01  -1.6536733E-01   4.2261460E+00   9.9529052E+00   1.3950029E+01   1.6770084E+01   1.6366674E+01   1.0951974E+01   2.0539018E+00   5.3480087E+00   8.2762492E+00   1.1034212E+01   1.2349378E+01   1.2402435E+01   1.1765520E-02   6.3060605E-01   1.5006822E+00   2.7836308E+00   4.3633225E+00   5.7832195E+00
   5.4499999E+02  -5.3779742E+01  -5.3164273E+01  -3.0254391E+01  -2.1104876E+01  -2.8678795E+01  -4.4977041E+01  -1.9739901E+01  -3.9181374E+01  -4.6996801E+01  -4.4568554E+01  -3.8418340E+01  -4.0238231E+01  -5.5438855E+00  -1.4684599E+01  -1.7539444E+01  -1.7424525E+01  -1.7590074E+01  -1.8501299E+01  -9.8250618E-01  -4.1107510E+00  -7.8284194E+00  -1.1694984E+01  -1.4196913E+01  -1.5760720E+01   1.5522669E+00   3.6730721E+00   9.9934702E-01  -4.8943455E+00  -1.3261686E+01  -2.5174305E+01   7.5147746E-01   1.1578062E+00   1.0278203E-01  -2.3253866E+00  -5.6187975E+00  -9.3523968E+00   8.1154723E-02   5.7567172E-01   1.1895059E+00   1.3827271E+00   1.2343210E+00   6.5333151E-01   3.8879418E-02   2.4766726E-01   4.3958490E-01   4.9998966E-01   3.2287042E-01  -6.1215766E-02  -1.7410855E+01  -9.8003387E+00  -9.4014972E+00  -1.3617525E+01  -1.8769319E+01  -2.5682757E+01  -1.1895399E+01  -1.4079718E+01  -1.2896986E+01  -1.3107789E+01  -1.8699755E+01  -2.8999628E+01   9.9889961E-01  -4.2327730E-01  -5.2489286E-01  -9.8227297E-01  -1.9163729E+00  -3.1274909E+00   4.4812386E+00   2.7624471E+00   1.8338221E+00   1.3472077E+00   8.6053043E-01  -4.8564856E-01   2.2414006E+01   3.2504814E+01   3.3773230E+01   2.5688332E+01   1.1984621E+01   6.0241296E-01   4.4222630E+00   1.0434400E+01   1.4654444E+01   1.7606613E+01   1.7229537E+01   1.1804766E+01   2.0841103E+00   5.4273266E+00   8.4292173E+00   1.1315298E+01   1.2744845E+01   1.2873460E+01   1.7786828E-02   6.6157887E-01   1.5754025E+00   2.9213840E+00   4.5668597E+00   6.0501607E+00
   5.4999999E+02  -5.3175773E+01  -5.4910837E+01  -3.2662583E+01  -2.3655459E+01  -3.1099769E+01  -4.5240989E+01  -2.0279209E+01  -4.0510642E+01  -4.8550295E+01  -4.5358506E+01  -3.7878571E+01  -3.9256604E+01  -5.2551004E+00  -1.4420328E+01  -1.7512434E+01  -1.7603592E+01  -1.8080715E+01  -1.9352629E+01  -9.9033353E-01  -4.2184595E+00  -8.1011372E+00  -1.2137548E+01  -1.4620727E+01  -1.6001454E+01   2.3623115E+00   5.5658158E+00   4.6373871E+00  -6.6683249E-02  -8.0116303E+00  -2.1332368E+01   7.9398587E-01   1.5078293E+00   6.2920959E-01  -2.0588348E+00  -5.8799343E+00  -9.9977266E+00   1.8869760E-01   6.8988878E-01   1.4841412E+00   2.0337524E+00   2.3558647E+00   2.2405775E+00   3.1260887E-02   2.4592379E-01   4.9526764E-01   6.2410832E-01   4.5318092E-01   2.2554339E-02  -1.8285973E+01  -1.1230881E+01  -1.1177125E+01  -1.5768714E+01  -2.0531302E+01  -2.5562578E+01  -1.2002121E+01  -1.4158115E+01  -1.2704217E+01  -1.2461048E+01  -1.7642148E+01  -2.7852668E+01   9.6876893E-01  -5.9322894E-01  -7.9896943E-01  -1.4314246E+00  -2.6246018E+00  -4.0354351E+00   4.4752221E+00   2.7221326E+00   1.7748754E+00   1.3091750E+00   9.0009926E-01  -3.2769652E-01   2.2759329E+01   3.3236355E+01   3.4863423E+01   2.6995659E+01   1.3227467E+01   1.6303487E+00   4.5736080E+00   1.0914895E+01   1.5450287E+01   1.8627624E+01   1.8252153E+01   1.2689592E+01   2.0910804E+00   5.4793697E+00   8.5422915E+00   1.1536970E+01   1.3071842E+01   1.3293137E+01   1.6289539E-02   6.7529985E-01   1.6327412E+00   3.0572540E+00   4.7927430E+00   6.3462217E+00
   5.5499999E+02  -5.1523438E+01  -5.7837027E+01  -3.7832769E+01  -2.9992797E+01  -4.0178084E+01  -5.6061694E+01  -2.0774683E+01  -4.1878439E+01  -5.0260830E+01  -4.6347037E+01  -3.7277814E+01  -3.7851238E+01  -4.7467089E+00  -1.3757994E+01  -1.7284625E+01  -1.7724252E+01  -1.8699989E+01  -2.1014203E+01  -9.8965647E-01  -4.3079703E+00  -8.3637252E+00  -1.2603321E+01  -1.5096948E+01  -1.6283359E+01   4.3338501E+00   8.9091189E+00   1.0428212E+01   8.9468054E+00   5.2765929E+00  -4.6140581E+00   8.7836296E-01   1.9224483E+00   1.3681402E+00  -1.4863826E+00  -6.0194006E+00  -1.0761018E+01   4.0711082E-01   1.0399628E+00   2.0175294E+00   2.9672610E+00   3.9973479E+00   5.0954838E+00   3.1243427E-02   2.4803926E-01   5.5884495E-01   7.9372591E-01   6.6150796E-01   1.8384454E-01  -1.9828120E+01  -1.3957314E+01  -1.4477735E+01  -1.9986779E+01  -2.5283765E+01  -2.9210076E+01  -1.2163905E+01  -1.4343431E+01  -1.2640745E+01  -1.1926587E+01  -1.6577092E+01  -2.6446466E+01   9.2305459E-01  -8.9541417E-01  -1.2894251E+00  -2.1792660E+00  -3.7924607E+00  -5.6998078E+00   4.4657314E+00   2.6695995E+00   1.6926762E+00   1.2320512E+00   8.8458206E-01  -2.1945845E-01   2.2929228E+01   3.3805353E+01   3.5765900E+01   2.8158088E+01   1.4483828E+01   2.8160828E+00   4.7565528E+00   1.1412223E+01   1.6276152E+01   1.9731205E+01   1.9358638E+01   1.3568560E+01   2.0609799E+00   5.4759712E+00   8.5871559E+00   1.1667848E+01   1.3298593E+01   1.3626553E+01   1.9488796E-02   6.9659258E-01   1.6955466E+00   3.2026286E+00   5.0417583E+00   6.6702201E+00
   5.5999999E+02  -4.8594503E+01  -6.4144074E+01  -5.1698615E+01  -4.8445428E+01  -6.9617393E+01  -1.0542668E+02  -2.1164310E+01  -4.3242331E+01  -5.2212497E+01  -4.7811807E+01  -3.6909003E+01  -3.6100244E+01  -3.9192857E+00  -1.2347153E+01  -1.6672935E+01  -1.7690389E+01  -1.8364058E+01  -1.9619136E+01  -9.7482565E-01  -4.3566911E+00  -8.5867823E+00  -1.3079238E+01  -1.5657920E+01  -1.6664276E+01   9.4861980E+00   1.8198688E+01   2.4860797E+01   3.1693470E+01   4.3872359E+01   6.0032519E+01   1.0140909E+00   2.4210594E+00   2.4009002E+00  -3.3622126E-01  -5.7511979E+00  -1.1518883E+01   7.9074902E-01   1.9053527E+00   3.2598551E+00   4.5434908E+00   5.5105794E+00   5.8170459E+00   3.7789962E-02   2.5218812E-01   6.2183658E-01   1.0126839E+00   9.9391012E-01   4.9017426E-01  -2.2881008E+01  -1.9740473E+01  -2.1516464E+01  -2.9180124E+01  -3.7531846E+01  -4.3983087E+01  -1.2381178E+01  -1.4703751E+01  -1.2835900E+01  -1.1683336E+01  -1.5683287E+01  -2.4817368E+01   8.0774607E-01  -1.5068368E+00  -2.2999936E+00  -3.6291545E+00  -5.9451160E+00  -8.8816644E+00   4.4571006E+00   2.6097575E+00   1.5850286E+00   1.0996600E+00   7.7553526E-01  -2.2295354E-01   2.2557900E+01   3.3787769E+01   3.6171120E+01   2.9067154E+01   1.5877407E+01   4.3823550E+00   4.9607343E+00   1.1934060E+01   1.7152280E+01   2.0970819E+01   2.0643913E+01   1.4490232E+01   1.9511429E+00   5.3165314E+00   8.4265669E+00   1.1550936E+01   1.3274381E+01   1.3757614E+01   2.4882245E-02   7.2169725E-01   1.7603101E+00   3.3545615E+00   5.3202579E+00   7.0426079E+00
   5.6499999E+02  -4.0730761E+01  -5.8977079E+01  -4.9673568E+01  -4.1480348E+01  -5.4275853E+01  -8.0941242E+01  -2.1349168E+01  -4.4483978E+01  -5.4452207E+01  -5.0163887E+01  -3.7508946E+01  -3.4602344E+01  -3.0559547E+00  -1.0230148E+01  -1.4873732E+01  -1.6463679E+01  -1.7404865E+01  -1.9664688E+01  -9.3867347E-01  -4.3305648E+00  -8.7154517E+00  -1.3514359E+01  -1.6323013E+01  -1.7248315E+01   1.3477667E+01   2.0960273E+01   2.5346002E+01   3.1173636E+01   4.4081007E+01   6.4206213E+01   1.2415982E+00   3.0520318E+00   3.8093017E+00   1.8077280E+00  -4.3101310E+00  -1.1633656E+01   1.3285098E+00   3.0976865E+00   4.5800367E+00   5.8593094E+00   7.2347822E+00   8.8956201E+00   5.2463361E-02   2.6449950E-01   6.7888337E-01   1.2688641E+00   1.5105559E+00   1.0827258E+00  -2.2294412E+01  -2.1331592E+01  -2.3683622E+01  -3.2463332E+01  -4.3394481E+01  -5.2356239E+01  -1.2668073E+01  -1.5326173E+01  -1.3455584E+01  -1.1992773E+01  -1.5343011E+01  -2.3359464E+01   1.1990932E+00  -1.1650028E+00  -2.1052233E+00  -3.4966464E+00  -6.0424663E+00  -9.5394985E+00   4.4525201E+00   2.5458162E+00   1.4484703E+00   8.9574054E-01   5.3014654E-01  -4.3467674E-01   2.1774634E+01   3.5063806E+01   3.9971592E+01   3.6821253E+01   2.8417445E+01   2.2283953E+01   5.1743854E+00   1.2471043E+01   1.8052100E+01   2.2315963E+01   2.2166613E+01   1.5611068E+01   1.5984583E+00   4.8268979E+00   7.9639499E+00   1.1336447E+01   1.3655741E+01   1.5071400E+01   3.0226160E-02   7.4804433E-01   1.8237561E+00   3.5022927E+00   5.6123997E+00   7.4634384E+00
