~V
VERS. 2.0 : CWLS LOG ASCII STANDARD -VERSION 2.0
WRAP. NO : ONE LINE PER DEPTH STEP
~W
STRT.FT 0.0000 :START DEPTH                       
STOP.FT 1400.0000 :STOP DEPTH                     
STEP.FT 5.0000 :STEP                              
NULL. -999.25 :NULL VALUE
FLD.  :FIELD
PROV.  :PROVINCE
COMP.  :COMPANY
DATE.  :DATE
LOC.  :LOCATION
SRVC.  :SERVICE COMPANY
UWI.  :UNIQUE WELL ID
WELL. Well1 :WELL
~C
DEPTH.FT  :DEPTH
USDP-83ft-2kHz.deg :                              
USDP-83ft-6kHz.deg :                              
USDP-83ft-12kHz.deg :                             
USDP-83ft-24kHz.deg :                             
USDP-83ft-48kHz.deg :                             
USDP-83ft-96kHz.deg :                             
USDP-43ft-2kHz.deg :                              
USDP-43ft-6kHz.deg :                              
USDP-43ft-12kHz.deg :                             
USDP-43ft-24kHz.deg :                             
USDP-43ft-48kHz.deg :                             
USDP-43ft-96kHz.deg :                             
USDA-83ft-2kHz.dB :                               
USDA-83ft-6kHz.dB :                               
USDA-83ft-12kHz.dB :                              
USDA-83ft-24kHz.dB :                              
USDA-83ft-48kHz.dB :                              
USDA-83ft-96kHz.dB :                              
USDA-43ft-2kHz.dB :                               
USDA-43ft-6kHz.dB :                               
USDA-43ft-12kHz.dB :                              
USDA-43ft-24kHz.dB :                              
USDA-43ft-48kHz.dB :                              
USDA-43ft-96kHz.dB :                              
UADP-83ft-2kHz.deg :                              
UADP-83ft-6kHz.deg :                              
UADP-83ft-12kHz.deg :                             
UADP-83ft-24kHz.deg :                             
UADP-83ft-48kHz.deg :                             
UADP-83ft-96kHz.deg :                             
UADP-43ft-2kHz.deg :                              
UADP-43ft-6kHz.deg :                              
UADP-43ft-12kHz.deg :                             
UADP-43ft-24kHz.deg :                             
UADP-43ft-48kHz.deg :                             
UADP-43ft-96kHz.deg :                             
UADA-83ft-2kHz.dB :                               
UADA-83ft-6kHz.dB :                               
UADA-83ft-12kHz.dB :                              
UADA-83ft-24kHz.dB :                              
UADA-83ft-48kHz.dB :                              
UADA-83ft-96kHz.dB :                              
UADA-43ft-2kHz.dB :                               
UADA-43ft-6kHz.dB :                               
UADA-43ft-12kHz.dB :                              
UADA-43ft-24kHz.dB :                              
UADA-43ft-48kHz.dB :                              
UADA-43ft-96kHz.dB :                              
UHRP-83ft-2kHz.deg :                              
UHRP-83ft-6kHz.deg :                              
UHRP-83ft-12kHz.deg :                             
UHRP-83ft-24kHz.deg :                             
UHRP-83ft-48kHz.deg :                             
UHRP-83ft-96kHz.deg :                             
UHRP-43ft-2kHz.deg :                              
UHRP-43ft-6kHz.deg :                              
UHRP-43ft-12kHz.deg :                             
UHRP-43ft-24kHz.deg :                             
UHRP-43ft-48kHz.deg :                             
UHRP-43ft-96kHz.deg :                             
UHRA-83ft-2kHz.dB :                               
UHRA-83ft-6kHz.dB :                               
UHRA-83ft-12kHz.dB :                              
UHRA-83ft-24kHz.dB :                              
UHRA-83ft-48kHz.dB :                              
UHRA-83ft-96kHz.dB :                              
UHRA-43ft-2kHz.dB :                               
UHRA-43ft-6kHz.dB :                               
UHRA-43ft-12kHz.dB :                              
UHRA-43ft-24kHz.dB :                              
UHRA-43ft-48kHz.dB :                              
UHRA-43ft-96kHz.dB :                              
UHAP-83ft-2kHz.deg :                              
UHAP-83ft-6kHz.deg :                              
UHAP-83ft-12kHz.deg :                             
UHAP-83ft-24kHz.deg :                             
UHAP-83ft-48kHz.deg :                             
UHAP-83ft-96kHz.deg :                             
UHAP-43ft-2kHz.deg :                              
UHAP-43ft-6kHz.deg :                              
UHAP-43ft-12kHz.deg :                             
UHAP-43ft-24kHz.deg :                             
UHAP-43ft-48kHz.deg :                             
UHAP-43ft-96kHz.deg :                             
UHAA-83ft-2kHz.dB :                               
UHAA-83ft-6kHz.dB :                               
UHAA-83ft-12kHz.dB :                              
UHAA-83ft-24kHz.dB :                              
UHAA-83ft-48kHz.dB :                              
UHAA-83ft-96kHz.dB :                              
UHAA-43ft-2kHz.dB :                               
UHAA-43ft-6kHz.dB :                               
UHAA-43ft-12kHz.dB :                              
UHAA-43ft-24kHz.dB :                              
UHAA-43ft-48kHz.dB :                              
UHAA-43ft-96kHz.dB :                              
~A
# ...
   6.2999999E+02   1.7771200E+01   1.4354445E+01  -1.9663664E+01  -3.9642346E+01  -3.0188381E+01  -1.3878945E+01   2.2851326E+01   4.5903492E+01   4.7282007E+01   1.7235732E+01  -2.1724932E+01  -2.8558980E+01   1.8462756E+00   6.3487243E+00   7.2218033E+00   2.5654391E+00  -1.7721004E+00  -3.0489354E+00   1.0623134E+00   5.2469681E+00   1.0783001E+01   1.5434592E+01   1.3821041E+01   9.1480157E+00   1.7298948E+01   4.3465277E+00  -2.5269998E+01  -2.8010738E+01  -1.4933092E+01  -6.5932041E+00   3.4855428E+00   8.2854474E+00   1.3769723E+01   1.4708067E+01   3.9995154E+00   3.5668493E-01   2.7185492E+00   6.4364089E+00   5.3322259E+00   9.4094712E-01  -9.7816172E-01  -1.2045007E+00   1.7640706E-01   5.3743245E-01   1.3455613E+00   3.2827124E+00   4.1618715E+00   3.5026969E+00  -1.4394868E+01  -1.2238581E+01  -1.2953459E+01  -2.2743329E+01  -3.4431867E+01  -3.9951010E+01  -1.0076832E+01  -9.8223041E+00  -4.4047861E+00   6.8138654E-01  -3.5921927E+00  -1.7101034E+01   2.3976324E+00   9.4518348E-01   7.2307328E-01   2.1829460E-01  -1.9957197E+00  -4.9850524E+00   4.6063420E+00   2.9544791E+00   2.2607611E+00   2.6513829E+00   3.6383851E+00   3.0575444E+00   2.5275989E+01   5.3544824E+01   7.7336736E+01   9.9390906E+01   9.5125056E+01   7.0194316E+01   8.7042750E+00   2.3820360E+01   3.9176027E+01   5.9426821E+01   8.4898549E+01   1.0869645E+02   9.3094510E-01   4.1803810E+00   8.4943637E+00   1.5691615E+01   2.5594264E+01   3.0714989E+01  -3.7288266E-02   8.4952293E-01   2.4240103E+00   5.2261057E+00   9.9766843E+00   1.8509676E+01
   6.3499999E+02   2.0887258E+01   9.0373700E+00  -2.6654301E+01  -4.2978249E+01  -3.2022216E+01  -1.5342351E+01   2.6900507E+01   5.2455877E+01   5.2190667E+01   1.5019917E+01  -3.0161483E+01  -3.4226542E+01   2.4805875E+00   7.4856085E+00   7.0418561E+00   2.0305812E+00  -2.3509159E+00  -3.7605676E+00   1.3007660E+00   6.3141865E+00   1.2631293E+01   1.7831636E+01   1.5039750E+01   9.6869864E+00   1.0453752E+01  -6.8465739E+00  -2.4904209E+01  -2.2577350E+01  -1.4376158E+01  -8.0458502E+00   4.8903484E+00   1.3179790E+01   2.0999376E+01   1.6581419E+01  -2.8355550E+00  -5.4532634E+00   2.2878526E+00   4.2943251E+00   2.0857783E+00  -9.1356984E-01  -2.3501098E+00  -2.9526105E+00   1.2880729E-01   7.2293470E-01   2.2645152E+00   5.3873115E+00   5.4339453E+00   4.0141297E+00  -1.2879915E+01  -8.9498472E+00  -1.1494485E+01  -2.4244436E+01  -3.5254493E+01  -3.9241628E+01  -1.1142098E+01  -9.9971742E+00  -3.3356534E+00   2.5850090E+00  -1.0886133E+00  -1.2830299E+01   2.4122489E+00   1.3629032E+00   1.5642473E+00   8.8828304E-01  -1.6598955E+00  -4.6168994E+00   4.4380371E+00   2.5941401E+00   1.9278093E+00   2.4545350E+00   3.5553289E+00   3.1672380E+00   2.6954806E+01   5.5551783E+01   7.8761924E+01   9.7925086E+01   8.5043423E+01   5.9720699E+01   8.9494551E+00   2.4389277E+01   3.9975736E+01   6.0355181E+01   8.4935529E+01   1.0476530E+02   1.1344844E+00   4.6741714E+00   9.2612846E+00   1.6855496E+01   2.6308768E+01   3.0479412E+01  -3.8738747E-02   8.8919906E-01   2.5185029E+00   5.4393454E+00   1.0399924E+01   1.8955228E+01
   6.3999999E+02   2.3340058E+01   5.2066523E-01  -3.4565142E+01  -4.7621119E+01  -3.7640913E+01  -2.3403332E+01   2.9107621E+01   5.5228868E+01   5.2923938E+01   9.3352249E+00  -3.4155488E+01  -3.4388283E+01   3.3019036E+00   8.2780303E+00   6.4838403E+00   1.2324010E+00  -3.2064170E+00  -5.1775106E+00   1.4707913E+00   6.9680431E+00   1.3686830E+01   1.8727098E+01   1.4811715E+01   9.4649662E+00   1.3574584E+00  -1.7681979E+01  -2.4144590E+01  -2.1473204E+01  -2.0195518E+01  -1.9261060E+01   5.5728760E+00   1.4894350E+01   2.1869565E+01   1.1791562E+01  -6.6674459E+00  -6.8927259E+00   1.6080011E+00   1.4102393E+00  -1.1313859E+00  -2.9768271E+00  -4.2973608E+00  -5.6688509E+00   1.1904749E-01   9.2146966E-01   2.8268086E+00   5.9254112E+00   5.0164855E+00   3.5406857E+00  -1.0755337E+01  -5.3479601E+00  -1.0708604E+01  -2.6046453E+01  -3.5876590E+01  -3.8118174E+01  -1.1666884E+01  -9.7102687E+00  -2.2772944E+00   4.0278318E+00   5.0424041E-01  -1.0956320E+01   2.4671841E+00   1.9879164E+00   2.5510021E+00   1.5796118E+00  -1.2868139E+00  -4.2184631E+00   4.3228360E+00   2.3969640E+00   1.7907303E+00   2.4424606E+00   3.6489113E+00   3.4568515E+00   2.9556900E+01   5.9053589E+01   8.2374480E+01   1.0001835E+02   8.1167624E+01   5.4430495E+01   9.2646554E+00   2.5000958E+01   4.0543712E+01   6.0293084E+01   8.3061687E+01   9.9247633E+01   1.4330286E+00   5.3603660E+00   1.0290190E+01   1.8389573E+01   2.7772035E+01   3.1405599E+01  -3.1968687E-02   9.6425417E-01   2.6809058E+00   5.7179809E+00   1.0753225E+01   1.9132926E+01
   6.4499999E+02   2.8618296E+01  -1.3565824E+00  -3.4841603E+01  -4.3919824E+01  -3.1175679E+01  -1.4279172E+01   3.0195006E+01   5.6260036E+01   5.2453945E+01   6.3148407E+00  -3.3168207E+01  -3.1703528E+01   4.3458528E+00   9.5936619E+00   7.1463761E+00   2.0002496E+00  -2.0590629E+00  -3.5880171E+00   1.5765439E+00   7.3093316E+00   1.4184904E+01   1.8784870E+01   1.4605500E+01   9.5950155E+00  -4.7247437E+00  -1.6897328E+01  -1.5774446E+01  -1.4369413E+01  -1.4844072E+01  -1.4368470E+01   5.5398465E+00   1.4304436E+01   1.9331655E+01   7.3701553E+00  -7.1802923E+00  -6.8074299E+00   7.5842839E-01  -7.3771293E-01  -2.3654152E+00  -3.2302591E+00  -4.1977636E+00  -5.1957915E+00   1.1452725E-01   1.0107086E+00   2.9104865E+00   5.4009745E+00   4.2645769E+00   3.0016523E+00  -1.0084613E+01  -4.9662305E+00  -1.3462345E+01  -2.9920941E+01  -3.7606842E+01  -3.7036634E+01  -1.2000342E+01  -9.5814214E+00  -1.8227266E+00   4.5219626E+00   9.7548320E-01  -1.0611993E+01   2.3847023E+00   2.2660398E+00   2.7820611E+00   1.2632221E+00  -2.0061804E+00  -5.0403227E+00   4.2445628E+00   2.2793896E+00   1.7095516E+00   2.4192064E+00   3.6577396E+00   3.5537079E+00   3.2737199E+01   6.2672636E+01   8.5968874E+01   1.0340630E+02   8.5296742E+01   5.8053942E+01   9.4586300E+00   2.5244050E+01   4.0390481E+01   5.9031249E+01   7.9758081E+01   9.2083497E+01   1.8615319E+00   6.2163010E+00   1.1399203E+01   1.9733920E+01   2.9286210E+01   3.3363651E+01  -2.5225892E-02   1.0342052E+00   2.8187026E+00   5.9048667E+00   1.0903770E+01   1.9033196E+01
   6.4999999E+02   4.0892002E+01   1.2142652E+01  -2.3273874E+01  -2.9953260E+01  -1.0986739E+01   9.8343551E+00   3.0730280E+01   5.6565414E+01   5.1627787E+01   5.3681332E+00  -3.0833890E+01  -2.8888494E+01   5.5081116E+00   1.2709768E+01   1.0904099E+01   6.1712355E+00   3.1766188E+00   3.4986125E+00   1.6430145E+00   7.4912546E+00   1.4397007E+01   1.8580125E+01   1.4521143E+01   9.8633296E+00   7.4368200E-01   4.2148644E-01  -3.3211709E-01  -3.9118507E-02   3.9124486E+00   5.7633822E+00   5.2038171E+00   1.2792191E+01   1.5989366E+01   4.6997757E+00  -6.6283388E+00  -6.4998615E+00   4.0799323E-01   4.3228211E-01   4.4664348E-01   1.7697105E-01   2.0155508E-01   1.0430419E+00   1.1516056E-01   1.0260396E+00   2.7327070E+00   4.6091894E+00   3.5856414E+00   2.5457141E+00  -1.3056506E+01  -8.4922885E+00  -1.7275803E+01  -3.2437424E+01  -3.7223516E+01  -3.2553709E+01  -1.2221785E+01  -9.5274137E+00  -1.6562451E+00   4.5273726E+00   8.0437468E-01  -1.0833351E+01   1.8401385E+00   1.3980965E+00   1.5549315E+00  -3.6319770E-01  -3.8687702E+00  -6.9320490E+00   4.1887398E+00   2.2053896E+00   1.6619166E+00   2.3972523E+00   3.6185165E+00   3.5036644E+00   3.3015271E+01   6.1050057E+01   8.3212585E+01   9.9622534E+01   8.4780187E+01   5.4650539E+01   9.6425558E+00   2.5348025E+01   3.9969635E+01   5.7546503E+01   7.6582110E+01   8.5482246E+01   2.1083143E+00   6.4426657E+00   1.1455420E+01   1.9481169E+01   2.8744846E+01   3.4211310E+01  -1.2434134E-02   1.1102897E+00   2.9414984E+00   6.0302527E+00   1.0967341E+01   1.8808347E+01
   6.5499999E+02   4.6799445E+01   1.6006425E+01  -2.1954112E+01  -2.9507725E+01  -1.2308474E+01   4.4127014E+00   3.1017290E+01   5.6641221E+01   5.0955995E+01   5.6780072E+00  -2.8180561E+01  -2.6163645E+01   6.3238124E+00   1.4381214E+01   1.2694325E+01   7.9570149E+00   5.1351463E+00   5.2624237E+00   1.6859878E+00   7.5925100E+00   1.4469069E+01   1.8362587E+01   1.4540779E+01   1.0195142E+01   3.3278777E+00   6.6907025E+00   2.3461265E+00   6.7084829E-01   2.5073869E+00  -1.0020616E+00   4.6999389E+00   1.0918745E+01   1.2731435E+01   3.0227126E+00  -6.0576585E+00  -6.4172587E+00   2.4081400E-01   1.1569767E+00   1.6916037E+00   1.4122813E+00   1.6457173E+00   2.3245045E+00   1.1508391E-01   9.8306152E-01   2.4224936E+00   3.8231515E+00   2.9757103E+00   2.1125005E+00  -1.4176625E+01  -9.3143622E+00  -1.7752880E+01  -3.1279257E+01  -3.3653884E+01  -2.6797584E+01  -1.2374069E+01  -9.5278744E+00  -1.6807337E+00   4.2176569E+00   2.7105289E-01  -1.1155292E+01   1.5113924E+00   9.7054670E-01   9.9705054E-01  -1.0197145E+00  -4.3826074E+00  -7.0412837E+00   4.1487429E+00   2.1589400E+00   1.6350908E+00   2.3721185E+00   3.5364751E+00   3.3605979E+00   3.3402632E+01   6.1010872E+01   8.3003340E+01   9.8594467E+01   8.3744375E+01   5.0008995E+01   9.8174459E+00   2.5359400E+01   3.9439489E+01   5.6118543E+01   7.3647967E+01   7.9412466E+01   2.2652786E+00   6.6108286E+00   1.1644420E+01   1.9674120E+01   2.8880027E+01   3.4503459E+01   4.6023871E-03   1.1862134E+00   3.0451368E+00   6.1190175E+00   1.1007391E+01   1.8536785E+01
