~V
VERS. 2.0 : CWLS LOG ASCII STANDARD -VERSION 2.0
WRAP. NO : ONE LINE PER DEPTH STEP
~W
STRT.FT 0.0000 :START DEPTH                       
STOP.FT 1400.0000 :STOP DEPTH                     
STEP.FT 5.0000 :STEP                              
NULL. -999.25 :NULL VALUE
FLD.  :FIELD
PROV.  :PROVINCE
COMP.  :COMPANY
DATE.  :DATE
LOC.  :LOCATION
SRVC.  :SERVICE COMPANY
UWI.  :UNIQUE WELL ID
WELL. Well1 :WELL
~C
DEPTH.FT  :DEPTH
USDP-83ft-2kHz.deg :                              
USDP-83ft-6kHz.deg :                              
USDP-83ft-12kHz.deg :                             
USDP-83ft-24kHz.deg :                             
USDP-83ft-48kHz.deg :                             
USDP-83ft-96kHz.deg :                             
USDP-43ft-2kHz.deg :                              
USDP-43ft-6kHz.deg :                              
USDP-43ft-12kHz.deg :                             
USDP-43ft-24kHz.deg :                             
USDP-43ft-48kHz.deg :                             
USDP-43ft-96kHz.deg :                             
USDA-83ft-2kHz.dB :                               
USDA-83ft-6kHz.dB :                               
USDA-83ft-12kHz.dB :                              
USDA-83ft-24kHz.dB :                              
USDA-83ft-48kHz.dB :                              
USDA-83ft-96kHz.dB :                              
USDA-43ft-2kHz.dB :                               
USDA-43ft-6kHz.dB :                               
USDA-43ft-12kHz.dB :                              
USDA-43ft-24kHz.dB :                              
USDA-43ft-48kHz.dB :                              
USDA-43ft-96kHz.dB :                              
UADP-83ft-2kHz.deg :                              
UADP-83ft-6kHz.deg :                              
UADP-83ft-12kHz.deg :                             
UADP-83ft-24kHz.deg :                             
UADP-83ft-48kHz.deg :                             
UADP-83ft-96kHz.deg :                             
UADP-43ft-2kHz.deg :                              
UADP-43ft-6kHz.deg :                              
UADP-43ft-12kHz.deg :                             
UADP-43ft-24kHz.deg :                             
UADP-43ft-48kHz.deg :                             
UADP-43ft-96kHz.deg :                             
UADA-83ft-2kHz.dB :                               
UADA-83ft-6kHz.dB :                               
UADA-83ft-12kHz.dB :                              
UADA-83ft-24kHz.dB :                              
UADA-83ft-48kHz.dB :                              
UADA-83ft-96kHz.dB :                              
UADA-43ft-2kHz.dB :                               
UADA-43ft-6kHz.dB :                               
UADA-43ft-12kHz.dB :                              
UADA-43ft-24kHz.dB :                              
UADA-43ft-48kHz.dB :                              
UADA-43ft-96kHz.dB :                              
UHRP-83ft-2kHz.deg :                              
UHRP-83ft-6kHz.deg :                              
UHRP-83ft-12kHz.deg :                             
UHRP-83ft-24kHz.deg :                             
UHRP-83ft-48kHz.deg :                             
UHRP-83ft-96kHz.deg :                             
UHRP-43ft-2kHz.deg :                              
UHRP-43ft-6kHz.deg :                              
UHRP-43ft-12kHz.deg :                             
UHRP-43ft-24kHz.deg :                             
UHRP-43ft-48kHz.deg :                             
UHRP-43ft-96kHz.deg :                             
UHRA-83ft-2kHz.dB :                               
UHRA-83ft-6kHz.dB :                               
UHRA-83ft-12kHz.dB :                              
UHRA-83ft-24kHz.dB :                              
UHRA-83ft-48kHz.dB :                              
UHRA-83ft-96kHz.dB :                              
UHRA-43ft-2kHz.dB :                               
UHRA-43ft-6kHz.dB :                               
UHRA-43ft-12kHz.dB :                              
UHRA-43ft-24kHz.dB :                              
UHRA-43ft-48kHz.dB :                              
UHRA-43ft-96kHz.dB :                              
UHAP-83ft-2kHz.deg :                              
UHAP-83ft-6kHz.deg :                              
UHAP-83ft-12kHz.deg :                             
UHAP-83ft-24kHz.deg :                             
UHAP-83ft-48kHz.deg :                             
UHAP-83ft-96kHz.deg :                             
UHAP-43ft-2kHz.deg :                              
UHAP-43ft-6kHz.deg :                              
UHAP-43ft-12kHz.deg :                             
UHAP-43ft-24kHz.deg :                             
UHAP-43ft-48kHz.deg :                             
UHAP-43ft-96kHz.deg :                             
UHAA-83ft-2kHz.dB :                               
UHAA-83ft-6kHz.dB :                               
UHAA-83ft-12kHz.dB :                              
UHAA-83ft-24kHz.dB :                              
UHAA-83ft-48kHz.dB :                              
UHAA-83ft-96kHz.dB :                              
UHAA-43ft-2kHz.dB :                               
UHAA-43ft-6kHz.dB :                               
UHAA-43ft-12kHz.dB :                              
UHAA-43ft-24kHz.dB :                              
UHAA-43ft-48kHz.dB :                              
UHAA-43ft-96kHz.dB :                              
~A
# ...
   1.2900000E+03  -1.2255714E+00  -2.6431465E+00  -4.1943717E+00  -7.3592021E+00  -1.4740845E+01  -3.4090556E+01  -5.7015508E-01  -1.5920360E+00  -2.9942866E+00  -5.6688488E+00  -1.1076528E+01  -2.2397714E+01  -4.9794572E-02  -1.5909070E-01  -2.1503178E-01  -1.5064401E-01   2.6813733E-01   1.6249327E+00  -6.1702927E-03  -2.5544760E-02  -5.1325042E-02  -8.4278871E-02  -1.2627815E-01  -3.1677805E-01  -1.3216561E+00  -3.4524810E+00  -6.0587317E+00  -1.0644695E+01  -1.8410248E+01  -2.9997492E+01  -1.8083069E-01  -8.5682297E-01  -1.7149152E+00  -2.9712526E+00  -4.4159084E+00  -5.3913675E+00   5.7236536E-02  -4.7566648E-02  -1.7701081E-01  -4.2801464E-01  -9.6485074E-01  -2.1940015E+00   3.8182785E-02   3.5861710E-02  -7.2371812E-03  -1.3044684E-01  -3.8429791E-01  -7.6822696E-01  -2.5092453E+01  -2.4830869E+01  -2.6232002E+01  -3.0294671E+01  -3.5409846E+01  -3.9864546E+01  -1.3114443E+01  -1.8932890E+01  -2.1858160E+01  -2.4618423E+01  -2.7505705E+01  -3.0025430E+01   4.7098036E-01  -2.2557769E+00  -3.7102201E+00  -5.4033952E+00  -7.6035309E+00  -1.0375310E+01   4.4848024E+00   2.7092880E+00   1.3004761E+00  -2.5891851E-01  -2.0170879E+00  -4.0265977E+00   1.9544082E+01   2.4188873E+01   2.1061029E+01   1.1286503E+01  -3.0978193E+00  -1.6824125E+01   3.4628245E+00   6.7786453E+00   7.6356215E+00   6.1442969E+00   1.8414849E+00  -3.9462921E+00   2.0353122E+00   5.0195100E+00   7.2092626E+00   8.9318972E+00   9.4230598E+00   8.3488018E+00   3.8054095E-02   6.5318963E-01   1.3387447E+00   2.0896002E+00   2.5953133E+00   2.4941506E+00
   1.2950000E+03  -2.7572185E+00  -4.7627935E+00  -6.3580912E+00  -9.9301794E+00  -1.8596236E+01  -4.0395141E+01  -1.0247854E+00  -2.5564349E+00  -4.3254324E+00  -7.3032464E+00  -1.2933214E+01  -2.4366665E+01  -1.7993589E-01  -5.2589787E-01  -7.1428715E-01  -7.3345116E-01  -4.0997655E-01   7.3473703E-01  -2.7037696E-02  -1.0822240E-01  -2.1322539E-01  -3.5371557E-01  -5.2115771E-01  -8.5004893E-01  -1.3248246E+00  -3.4647874E+00  -6.0833894E+00  -1.0688285E+01  -1.8472663E+01  -2.9957987E+01  -1.8289431E-01  -8.6254762E-01  -1.7252103E+00  -2.9911254E+00  -4.4575107E+00  -5.4859570E+00   5.7328962E-02  -4.7181969E-02  -1.7638699E-01  -4.2580306E-01  -9.5473801E-01  -2.1444004E+00   3.8228269E-02   3.5814289E-02  -7.2657565E-03  -1.3007255E-01  -3.8236923E-01  -7.6104355E-01  -2.5075400E+01  -2.4795429E+01  -2.6175198E+01  -3.0204201E+01  -3.5240480E+01  -3.9487950E+01  -1.3111946E+01  -1.8921744E+01  -2.1832807E+01  -2.4565837E+01  -2.7400116E+01  -2.9816973E+01   4.7147489E-01  -2.2540606E+00  -3.7069280E+00  -5.3994111E+00  -7.6021456E+00  -1.0382405E+01   4.4846512E+00   2.7088118E+00   1.2999153E+00  -2.5920427E-01  -2.0162878E+00  -4.0209265E+00   1.9536094E+01   2.4177903E+01   2.1040710E+01   1.1250013E+01  -3.1650663E+00  -1.6935443E+01   3.4600203E+00   6.7713259E+00   7.6215161E+00   6.1188722E+00   1.7999305E+00  -3.9985179E+00   2.0346947E+00   5.0188404E+00   7.2082022E+00   8.9300736E+00   9.4189234E+00   8.3373936E+00   3.7876577E-02   6.5293016E-01   1.3381790E+00   2.0880790E+00   2.5911774E+00   2.4833083E+00
   1.3000000E+03  -4.2867369E+00  -6.8693840E+00  -8.4977031E+00  -1.2462180E+01  -2.2378957E+01  -4.6494930E+01  -1.4779114E+00  -3.5193039E+00  -5.6551467E+00  -8.9357651E+00  -1.4786134E+01  -2.6327725E+01  -3.1033469E-01  -8.9303489E-01  -1.2131999E+00  -1.3154232E+00  -1.0888867E+00  -1.6244776E-01  -4.7698268E-02  -1.9049319E-01  -3.7464242E-01  -6.2261992E-01  -9.1531876E-01  -1.3814543E+00  -1.3176630E+00  -3.4604097E+00  -6.0863660E+00  -1.0699493E+01  -1.8476957E+01  -2.9806373E+01  -1.8307759E-01  -8.6460916E-01  -1.7313549E+00  -3.0073900E+00  -4.4983674E+00  -5.5885337E+00   5.8327096E-02  -4.4618843E-02  -1.7275663E-01  -4.2001453E-01  -9.4053618E-01  -2.0880225E+00   3.8289475E-02   3.6128550E-02  -6.5619005E-03  -1.2847874E-01  -3.7855979E-01  -7.5120611E-01  -2.5056405E+01  -2.4743307E+01  -2.6102374E+01  -3.0096188E+01  -3.5047855E+01  -3.9079932E+01  -1.3109536E+01  -1.8907869E+01  -2.1800624E+01  -2.4501258E+01  -2.7280423E+01  -2.9598612E+01   4.7150632E-01  -2.2510736E+00  -3.7009727E+00  -5.3919394E+00  -7.5960142E+00  -1.0381843E+01   4.4842468E+00   2.7079586E+00   1.2991278E+00  -2.5899985E-01  -2.0136866E+00  -4.0125419E+00   1.9545950E+01   2.4193183E+01   2.1057501E+01   1.1247340E+01  -3.2120366E+00  -1.7045643E+01   3.4586826E+00   6.7699710E+00   7.6184760E+00   6.1084248E+00   1.7747406E+00  -4.0360416E+00   2.0351950E+00   5.0204888E+00   7.2123496E+00   8.9372470E+00   9.4264613E+00   8.3391353E+00   3.7819182E-02   6.5279188E-01   1.3382935E+00   2.0883395E+00   2.5902109E+00   2.4772441E+00
   1.3050000E+03  -5.8050045E+00  -8.9496044E+00  -1.0594446E+01  -1.4918317E+01  -2.6006175E+01  -5.2215463E+01  -1.9365535E+00  -4.4921675E+00  -6.9970939E+00  -1.0580225E+01  -1.6646541E+01  -2.8286115E+01  -4.4055206E-01  -1.2590156E+00  -1.7103779E+00  -1.8962418E+00  -1.7705427E+00  -1.0726590E+00  -6.8740200E-02  -2.7396096E-01  -5.3818422E-01  -8.9481188E-01  -1.3138038E+00  -1.9171739E+00  -1.3095007E+00  -3.4447359E+00  -6.0665759E+00  -1.0670101E+01  -1.8404369E+01  -2.9503537E+01  -1.8327225E-01  -8.6687537E-01  -1.7387781E+00  -3.0279923E+00  -4.5490529E+00  -5.7101860E+00   5.8733202E-02  -4.2852907E-02  -1.6953245E-01  -4.1431032E-01  -9.2690060E-01  -2.0326775E+00   3.8412997E-02   3.6562887E-02  -5.6018068E-03  -1.2653094E-01  -3.7443368E-01  -7.4123077E-01  -2.5020739E+01  -2.4657944E+01  -2.5983839E+01  -2.9931435E+01  -3.4777660E+01  -3.8560223E+01  -1.3110701E+01  -1.8893546E+01  -2.1760973E+01  -2.4421647E+01  -2.7139967E+01  -2.9359365E+01   4.7157649E-01  -2.2460548E+00  -3.6902525E+00  -5.3766914E+00  -7.5786446E+00  -1.0363160E+01   4.4832581E+00   2.7057263E+00   1.2970082E+00  -2.5930620E-01  -2.0100858E+00  -4.0013836E+00   1.9556285E+01   2.4216037E+01   2.1082798E+01   1.1253530E+01  -3.2517379E+00  -1.7150267E+01   3.4597090E+00   6.7744919E+00   7.6243381E+00   6.1110304E+00   1.7640556E+00  -4.0625412E+00   2.0356568E+00   5.0229303E+00   7.2179445E+00   8.9466382E+00   9.4369040E+00   8.3443905E+00   3.7490088E-02   6.5278143E-01   1.3389146E+00   2.0899406E+00   2.5919630E+00   2.4753082E+00
   1.3100000E+03  -7.3143641E+00  -1.0996634E+01  -1.2624476E+01  -1.7250161E+01  -2.9386327E+01  -5.7365316E+01  -2.3968343E+00  -5.4701716E+00  -8.3460851E+00  -1.2230808E+01  -1.8508232E+01  -3.0239380E+01  -5.7103205E-01  -1.6256183E+00  -2.2078590E+00  -2.4780014E+00  -2.4594835E+00  -2.0088232E+00  -8.9716011E-02  -3.5764732E-01  -7.0253635E-01  -1.1685990E+00  -1.7143170E+00  -2.4540846E+00  -1.2799809E+00  -3.3879911E+00  -5.9881126E+00  -1.0541136E+01  -1.8132361E+01  -2.8779803E+01  -1.8194049E-01  -8.6618833E-01  -1.7432317E+00  -3.0464647E+00  -4.6006146E+00  -5.8423374E+00   6.0196544E-02  -3.7596166E-02  -1.6182900E-01  -4.0553683E-01  -9.1690076E-01  -1.9991640E+00   3.8546620E-02   3.7323465E-02  -4.0020633E-03  -1.2356076E-01  -3.6868634E-01  -7.2885060E-01  -2.4978744E+01  -2.4556082E+01  -2.5844513E+01  -2.9744552E+01  -3.4482843E+01  -3.8013323E+01  -1.3113476E+01  -1.8877422E+01  -2.1714652E+01  -2.4329601E+01  -2.6984095E+01  -2.9106395E+01   4.7152692E-01  -2.2399606E+00  -3.6768580E+00  -5.3570302E+00  -7.5547111E+00  -1.0332455E+01   4.4817457E+00   2.7026396E+00   1.2941367E+00  -2.5963816E-01  -2.0052449E+00  -3.9879850E+00   1.9574988E+01   2.4254523E+01   2.1125057E+01   1.1269642E+01  -3.2974937E+00  -1.7287601E+01   3.4627566E+00   6.7845714E+00   7.6404190E+00   6.1280771E+00   1.7693592E+00  -4.0767567E+00   2.0366166E+00   5.0272576E+00   7.2272100E+00   8.9616627E+00   9.4542538E+00   8.3568995E+00   3.7388417E-02   6.5306335E-01   1.3402941E+00   2.0933165E+00   2.5969707E+00   2.4783261E+00
   1.3150000E+03  -8.8028354E+00  -1.2994087E+01  -1.4582010E+01  -1.9472493E+01  -3.2572853E+01  -6.2103933E+01  -2.8555925E+00  -6.4444774E+00  -9.6886281E+00  -1.3870294E+01  -2.0353187E+01  -3.2172921E+01  -7.0103579E-01  -1.9891875E+00  -2.6997084E+00  -3.0525562E+00  -3.1429470E+00  -2.9446506E+00  -1.1066780E-01  -4.4117765E-01  -8.6656271E-01  -1.4416139E+00  -2.1129988E+00  -2.9871844E+00  -1.2537452E+00  -3.3355356E+00  -5.9050421E+00  -1.0387520E+01  -1.7796337E+01  -2.7927932E+01  -1.8231936E-01  -8.6992268E-01  -1.7534698E+00  -3.0729103E+00  -4.6651665E+00  -5.9947633E+00   6.1602820E-02  -3.3814635E-02  -1.5705183E-01  -4.0154973E-01  -9.1571714E-01  -1.9856673E+00   3.8675689E-02   3.7797935E-02  -3.0043628E-03  -1.2143881E-01  -3.6416657E-01  -7.1875560E-01  -2.4920216E+01  -2.4424899E+01  -2.5673956E+01  -2.9525553E+01  -3.4154878E+01  -3.7438726E+01  -1.3113535E+01  -1.8855376E+01  -2.1659477E+01  -2.4226320E+01  -2.6817581E+01  -2.8847156E+01   4.7253733E-01  -2.2298732E+00  -3.6570604E+00  -5.3286433E+00  -7.5191076E+00  -1.0284669E+01   4.4804097E+00   2.7000376E+00   1.2922419E+00  -2.5816400E-01  -1.9975841E+00  -3.9715800E+00   1.9598560E+01   2.4310209E+01   2.1193769E+01   1.1311852E+01  -3.3240605E+00  -1.7413942E+01   3.4664147E+00   6.7973745E+00   7.6636074E+00   6.1575815E+00   1.7908154E+00  -4.0740364E+00   2.0375871E+00   5.0320830E+00   7.2390228E+00   8.9819525E+00   9.4788610E+00   8.3781536E+00   3.7352324E-02   6.5325083E-01   1.3417104E+00   2.0974495E+00   2.6039895E+00   2.4851485E+00
