~V
VERS. 2.0 : CWLS LOG ASCII STANDARD -VERSION 2.0
WRAP. NO : ONE LINE PER DEPTH STEP
~W
STRT.FT 0.0000 :START DEPTH                       
STOP.FT 1400.0000 :STOP DEPTH                     
STEP.FT 5.0000 :STEP                              
NULL. -999.25 :NULL VALUE
FLD.  :FIELD
PROV.  :PROVINCE
COMP.  :COMPANY
DATE.  :DATE
LOC.  :LOCATION
SRVC.  :SERVICE COMPANY
UWI.  :UNIQUE WELL ID
WELL. Well1 :WELL
~C
DEPTH.FT  :DEPTH
USDP-83ft-2kHz.deg :                              
USDP-83ft-6kHz.deg :                              
USDP-83ft-12kHz.deg :                             
USDP-83ft-24kHz.deg :                             
USDP-83ft-48kHz.deg :                             
USDP-83ft-96kHz.deg :                             
USDP-43ft-2kHz.deg :                              
USDP-43ft-6kHz.deg :                              
USDP-43ft-12kHz.deg :                             
USDP-43ft-24kHz.deg :                             
USDP-43ft-48kHz.deg :                             
USDP-43ft-96kHz.deg :                             
USDA-83ft-2kHz.dB :                               
USDA-83ft-6kHz.dB :                               
USDA-83ft-12kHz.dB :                              
USDA-83ft-24kHz.dB :                              
USDA-83ft-48kHz.dB :                              
USDA-83ft-96kHz.dB :                              
USDA-43ft-2kHz.dB :                               
USDA-43ft-6kHz.dB :                               
USDA-43ft-12kHz.dB :                              
USDA-43ft-24kHz.dB :                              
USDA-43ft-48kHz.dB :                              
USDA-43ft-96kHz.dB :                              
UADP-83ft-2kHz.deg :                              
UADP-83ft-6kHz.deg :                              
UADP-83ft-12kHz.deg :                             
UADP-83ft-24kHz.deg :                             
UADP-83ft-48kHz.deg :                             
UADP-83ft-96kHz.deg :                             
UADP-43ft-2kHz.deg :                              
UADP-43ft-6kHz.deg :                              
UADP-43ft-12kHz.deg :                             
UADP-43ft-24kHz.deg :                             
UADP-43ft-48kHz.deg :                             
UADP-43ft-96kHz.deg :                             
UADA-83ft-2kHz.dB :                               
UADA-83ft-6kHz.dB :                               
UADA-83ft-12kHz.dB :                              
UADA-83ft-24kHz.dB :                              
UADA-83ft-48kHz.dB :                              
UADA-83ft-96kHz.dB :                              
UADA-43ft-2kHz.dB :                               
UADA-43ft-6kHz.dB :                               
UADA-43ft-12kHz.dB :                              
UADA-43ft-24kHz.dB :                              
UADA-43ft-48kHz.dB :                              
UADA-43ft-96kHz.dB :                              
UHRP-83ft-2kHz.deg :                              
UHRP-83ft-6kHz.deg :                              
UHRP-83ft-12kHz.deg :                             
UHRP-83ft-24kHz.deg :                             
UHRP-83ft-48kHz.deg :                             
UHRP-83ft-96kHz.deg :                             
UHRP-43ft-2kHz.deg :                              
UHRP-43ft-6kHz.deg :                              
UHRP-43ft-12kHz.deg :                             
UHRP-43ft-24kHz.deg :                             
UHRP-43ft-48kHz.deg :                             
UHRP-43ft-96kHz.deg :                             
UHRA-83ft-2kHz.dB :                               
UHRA-83ft-6kHz.dB :                               
UHRA-83ft-12kHz.dB :                              
UHRA-83ft-24kHz.dB :                              
UHRA-83ft-48kHz.dB :                              
UHRA-83ft-96kHz.dB :                              
UHRA-43ft-2kHz.dB :                               
UHRA-43ft-6kHz.dB :                               
UHRA-43ft-12kHz.dB :                              
UHRA-43ft-24kHz.dB :                              
UHRA-43ft-48kHz.dB :                              
UHRA-43ft-96kHz.dB :                              
UHAP-83ft-2kHz.deg :                              
UHAP-83ft-6kHz.deg :                              
UHAP-83ft-12kHz.deg :                             
UHAP-83ft-24kHz.deg :                             
UHAP-83ft-48kHz.deg :                             
UHAP-83ft-96kHz.deg :                             
UHAP-43ft-2kHz.deg :                              
UHAP-43ft-6kHz.deg :                              
UHAP-43ft-12kHz.deg :                             
UHAP-43ft-24kHz.deg :                             
UHAP-43ft-48kHz.deg :                             
UHAP-43ft-96kHz.deg :                             
UHAA-83ft-2kHz.dB :                               
UHAA-83ft-6kHz.dB :                               
UHAA-83ft-12kHz.dB :                              
UHAA-83ft-24kHz.dB :                              
UHAA-83ft-48kHz.dB :                              
UHAA-83ft-96kHz.dB :                              
UHAA-43ft-2kHz.dB :                               
UHAA-43ft-6kHz.dB :                               
UHAA-43ft-12kHz.dB :                              
UHAA-43ft-24kHz.dB :                              
UHAA-43ft-48kHz.dB :                              
UHAA-43ft-96kHz.dB :                              
~A
# ...
   1.0200000E+03   2.5997048E+01   3.0101144E+01   2.4348558E+01   1.6068420E+01   8.1114487E+00  -1.6054107E+01   1.4370491E+01   2.9647491E+01   3.8732591E+01   4.1003048E+01   3.0031811E+01   1.4483405E+01   2.7837828E+00   6.9137277E+00   9.2659477E+00   1.0893443E+01   1.2285741E+01   1.5921393E+01   6.9159251E-01   2.8146800E+00   5.5653164E+00   9.3248329E+00   1.2882320E+01   1.4113549E+01   2.0746088E+01   3.1638003E+01   3.1961559E+01   2.6383225E+01   2.5704701E+01   1.2551583E+01   6.6271103E+00   1.4258351E+01   1.9998195E+01   2.3896566E+01   2.3410204E+01   2.4917243E+01   1.7955258E+00   5.1021062E+00   7.9255964E+00   1.0177707E+01   1.2007238E+01   1.7993912E+01   3.1129481E-01   1.1986845E+00   2.4126180E+00   4.2003581E+00   6.0154465E+00   7.0379322E+00  -1.6072196E+01  -1.3073792E+01  -1.4937435E+01  -2.2361922E+01  -3.3480521E+01  -4.4126680E+01  -8.5177077E+00  -8.9999532E+00  -7.3640699E+00  -6.2899482E+00  -1.0931190E+01  -2.7290559E+01   1.6089723E+00   2.1072371E-01  -1.9987340E-01  -9.4232812E-01  -2.6505724E+00  -5.8489906E+00   4.7119672E+00   3.5233214E+00   2.9511092E+00   2.8539770E+00   3.2447700E+00   2.9911512E+00   2.0951429E+01   3.6440122E+01   4.7313002E+01   5.5014174E+01   5.3153367E+01   5.4495662E+01   4.4903263E+00   1.2376934E+01   2.0719534E+01   3.2248138E+01   4.4887386E+01   5.0080403E+01   1.3636188E+00   4.1833696E+00   7.1113785E+00   1.1188789E+01   1.5315419E+01   1.8030209E+01  -8.8460625E-02   3.6076692E-01   1.1439752E+00   2.6830807E+00   5.5445584E+00   9.6566439E+00
   1.0250000E+03   2.7010334E+01   2.9913376E+01   2.1017290E+01   1.1134826E+01   8.6786785E+00   3.3303158E+00   2.0239379E+01   4.1288388E+01   4.7730072E+01   3.3871928E+01   1.0448730E+01   5.0544160E+00   2.9253125E+00   7.3389404E+00   9.6080609E+00   1.0447703E+01   1.0956664E+01   1.4291350E+01   9.5866022E-01   4.3320685E+00   8.8038200E+00   1.3328920E+01   1.4281779E+01   1.2918968E+01   1.8151350E+01   2.5360241E+01   2.2705364E+01   1.8453499E+01   2.5527134E+01   3.1476315E+01   1.8130819E+00   3.0895952E+00   4.3754029E+00   6.2545821E+00   7.6364693E+00   9.1195506E+00   1.7155271E+00   4.6648943E+00   6.7708119E+00   7.7419234E+00   8.7476225E+00   1.3789538E+01   1.5084623E-01   3.7028444E-01   5.5887804E-01   9.0790404E-01   1.4202383E+00   2.0334099E+00  -1.5387882E+01  -1.1488615E+01  -1.2626337E+01  -1.9627101E+01  -3.1493690E+01  -4.5101642E+01  -8.4899162E+00  -7.1220831E+00  -2.6559576E+00   5.1277903E-01  -5.6212989E+00  -2.2919886E+01   1.6393752E+00   3.3098479E-01   6.7286712E-02  -4.1877820E-01  -1.7864100E+00  -4.6773162E+00   4.6233328E+00   3.3385598E+00   2.9409718E+00   3.4574208E+00   4.4575244E+00   4.1393829E+00   2.1299085E+01   3.6678338E+01   4.6623128E+01   5.1229244E+01   4.5413116E+01   4.6980525E+01   6.3214492E+00   1.6041068E+01   2.5454387E+01   3.7056968E+01   4.7198912E+01   4.4778729E+01   1.4160926E+00   4.3428356E+00   7.4035436E+00   1.1528687E+01   1.5035660E+01   1.6916059E+01   7.6269442E-03   7.3173431E-01   1.8726472E+00   3.9449346E+00   7.4684906E+00   1.1986298E+01
   1.0300000E+03   2.8246863E+01   2.9257196E+01   1.6975793E+01   7.1013173E+00   9.2623343E+00   1.2925880E+01   2.7025844E+01   5.2565285E+01   5.2517689E+01   2.4623605E+01  -1.0922227E+00  -3.6332299E+00   3.1157011E+00   7.8488942E+00   9.8750586E+00   9.9348759E+00   9.9229411E+00   1.2626270E+01   1.3301521E+00   6.2708741E+00   1.2243079E+01   1.6414160E+01   1.5612339E+01   1.3552912E+01   1.4952679E+01   1.8297211E+01   1.3920566E+01   1.3045476E+01   2.4481210E+01   3.7662831E+01  -1.4727221E+00  -2.1320187E+00   4.6463088E-01   5.0687293E+00   3.2579058E+00  -2.8397678E+00   1.5856942E+00   4.0241538E+00   5.2716807E+00   5.3023550E+00   5.9731429E+00   9.5497821E+00  -6.0978970E-02  -4.6525262E-01  -7.9405147E-01  -3.6656061E-01   5.7084079E-01   9.3203472E-01  -1.4613363E+01  -9.6617012E+00  -1.0167989E+01  -1.7147468E+01  -2.9767146E+01  -4.5450866E+01  -1.0072646E+01  -8.0797068E+00  -2.4054660E+00   3.4983694E-01  -6.4580035E+00  -1.9825540E+01   1.6663338E+00   4.7408175E-01   3.9625802E-01   1.6586896E-01  -9.4599712E-01  -3.5088941E+00   4.4241572E+00   2.8586460E+00   2.4835828E+00   3.1142565E+00   3.8388114E+00   3.0908461E+00   2.1759337E+01   3.7032117E+01   4.6008638E+01   4.7578383E+01   3.8466698E+01   3.9145634E+01   9.6899456E+00   2.1929117E+01   3.2280734E+01   4.4108004E+01   5.3941475E+01   5.0745526E+01   1.4854690E+00   4.5353221E+00   7.7338260E+00   1.1886844E+01   1.4847355E+01   1.6074049E+01   2.1965758E-01   1.4692586E+00   3.1137396E+00   5.7230891E+00   9.7799859E+00   1.4796206E+01
   1.0350000E+03   3.0199465E+01   2.8689104E+01   1.3182837E+01   4.4705012E+00   1.0665660E+01   1.9560280E+01   2.8564712E+01   5.4890563E+01   5.4373532E+01   2.5100606E+01  -2.8658625E+00  -5.6881022E+00   3.4019925E+00   8.5461698E+00   1.0215102E+01   9.6032918E+00   9.2827110E+00   1.1464802E+01   1.4276240E+00   6.6683711E+00   1.2865159E+01   1.7228002E+01   1.6296359E+01   1.3876655E+01   1.1019824E+01   1.0758299E+01   6.5724196E+00   9.5195091E+00   2.1888624E+01   3.5775663E+01  -1.2592663E+00  -7.7270446E-01   2.0343562E+00   3.2612315E+00  -2.3132370E+00  -8.5812625E+00   1.3776671E+00   3.1097975E+00   3.4828783E+00   3.0451648E+00   3.6025619E+00   5.8571531E+00  -1.0142195E-01  -4.3494226E-01  -4.5712177E-01   2.4401410E-01   6.8923948E-01   3.9977686E-01  -1.3676198E+01  -7.3991810E+00  -7.4081628E+00  -1.4752638E+01  -2.7868975E+01  -4.4314255E+01  -1.0632981E+01  -8.4915191E+00  -2.3875577E+00   1.1928867E+00  -4.1672798E+00  -1.6077914E+01   1.6844197E+00   6.5377980E-01   8.1724279E-01   8.3165372E-01  -1.0694939E-01  -2.3300357E+00   4.3530554E+00   2.6853114E+00   2.2627051E+00   2.8662030E+00   3.6626565E+00   3.2064836E+00   2.2246003E+01   3.7339108E+01   4.5321677E+01   4.4108352E+01   3.1962320E+01   2.9831403E+01   9.0880127E+00   2.0764746E+01   3.0817460E+01   4.2307405E+01   5.1212321E+01   4.7446898E+01   1.5641543E+00   4.7384017E+00   8.0608064E+00   1.2228131E+01   1.4797468E+01   1.5532899E+01   1.8363590E-01   1.3467675E+00   2.9009982E+00   5.4310687E+00   9.3763947E+00   1.4111561E+01
   1.0400000E+03   3.3377915E+01   2.7611048E+01   8.6397201E+00   1.9332903E+00   1.1795781E+01   2.4341859E+01   2.8891196E+01   5.5539549E+01   5.5892356E+01   2.6864591E+01  -1.7938207E+00  -3.6619337E+00   3.8956202E+00   9.5973613E+00   1.0700467E+01   9.4211857E+00   8.8768070E+00   1.0584500E+01   1.4476457E+00   6.7020565E+00   1.2939270E+01   1.7545275E+01   1.6622615E+01   1.4180753E+01   5.7471502E+00   2.5082421E+00   6.9741268E-01   6.2068309E+00   1.5940515E+01   2.5828606E+01  -7.2072603E-01   4.3034839E-01   2.3733471E+00   6.1988711E-01  -5.4334177E+00  -1.0043391E+01   1.0168904E+00   1.7431574E+00   1.3549594E+00   9.0922207E-01   1.4174876E+00   2.6848866E+00  -9.4793422E-02  -2.6898579E-01  -5.6880008E-02   5.7896662E-01   5.2333304E-01   2.3386455E-03  -1.2533260E+01  -4.6732058E+00  -4.7318818E+00  -1.3044470E+01  -2.6000279E+01  -4.0924204E+01  -1.1219086E+01  -9.3037498E+00  -3.1012708E+00   1.0214179E+00  -3.5725010E+00  -1.5172372E+01   1.6769279E+00   8.9256290E-01   1.3498641E+00   1.5088072E+00   5.5503954E-01  -1.4544959E+00   4.2984981E+00   2.5341519E+00   2.0244203E+00   2.5623400E+00   3.3851071E+00   3.0803380E+00   2.3258068E+01   3.8468514E+01   4.5839891E+01   4.2581686E+01   2.7274081E+01   1.9802660E+01   8.6714463E+00   2.0033020E+01   2.9813712E+01   4.0589066E+01   4.8009714E+01   4.3393943E+01   1.7041806E+00   5.0596519E+00   8.5539311E+00   1.2859955E+01   1.5380042E+01   1.5892244E+01   1.5360711E-01   1.2657315E+00   2.7888995E+00   5.2929782E+00   9.0980796E+00   1.3483025E+01
   1.0450000E+03   4.0217010E+01   2.6278726E+01   3.3287914E+00   5.9538763E-03   1.3117068E+01   2.7694002E+01   2.8705489E+01   5.5406709E+01   5.6816824E+01   2.9076743E+01   1.2693699E+00   7.2653125E-02   4.9814010E+00   1.1650435E+01   1.1843870E+01   9.9290517E+00   9.3755530E+00   1.0781837E+01   1.4359904E+00   6.5981487E+00   1.2780072E+01   1.7522129E+01   1.6791070E+01   1.4584809E+01  -1.8075738E+00  -4.9255614E+00  -1.5482232E+00   2.8357851E+00   5.0884049E+00   4.7973994E+00  -2.8491565E-01   1.0339326E+00   1.9286161E+00  -1.3384447E+00  -6.4930070E+00  -1.0023791E+01   2.9135341E-01  -4.2497799E-01  -9.9149137E-01  -8.5415834E-01  -3.1613777E-01   3.8946445E-01  -7.5387398E-02  -1.1458059E-01   1.9903479E-01   6.4173438E-01   3.3524463E-01  -1.8308391E-01  -1.2239795E+01  -3.9569121E+00  -6.6971251E+00  -1.7563812E+01  -2.8586997E+01  -3.7743617E+01  -1.1670393E+01  -1.0021590E+01  -3.8576149E+00   4.9776325E-01  -3.8091906E+00  -1.5453916E+01   1.5099251E+00   1.0197179E+00   1.5782028E+00   1.2503330E+00  -4.1942615E-01  -2.6740655E+00   4.2603544E+00   2.4266132E+00   1.8448634E+00   2.3233847E+00   3.1334529E+00   2.8676792E+00   2.7353335E+01   4.4535338E+01   5.3073791E+01   4.9785776E+01   3.1472908E+01   1.7081128E+01   8.3361773E+00   1.9406109E+01   2.8785509E+01   3.8625475E+01   4.4654417E+01   3.9443490E+01   2.1865430E+00   6.0871001E+00   1.0105764E+01   1.5146996E+01   1.8441792E+01   1.9401945E+01   1.2956794E-01   1.2111809E+00   2.7182335E+00   5.1774798E+00   8.7925941E+00   1.2820822E+01
